{
    "sucesso": true,
    "dado": [
        {
            "br": "BR-060",
            "idPosto": 211,
            "km": 61,
            "latitude": "-19.177825",
            "longitude": "-53.074179",
            "municipio": "Paraíso das Águas",
            "pista": "S",
            "uf": "MS",
            "localizacao": "BR-060/MS km 61"
        },
        {
            "br": "BR-060",
            "idPosto": 207,
            "km": 580,
            "latitude": "-21.423194",
            "longitude": "-56.06332",
            "municipio": "Guia Lopes da Laguna",
            "pista": "S",
            "uf": "MS",
            "localizacao": "BR-060/MS km 580"
        },
        {
            "br": "BR-060",
            "idPosto": 49,
            "km": 268,
            "latitude": "-19.966589",
            "longitude": "-54.380298",
            "municipio": "Bandeirantes",
            "pista": "S",
            "uf": "MS",
            "localizacao": "BR-060/MS km 268"
        },
        {
            "br": "BR-070",
            "idPosto": 214,
            "km": 256,
            "latitude": "-15.544065",
            "longitude": "-54.2426",
            "municipio": "Primavera do Leste",
            "pista": "S",
            "uf": "MT",
            "localizacao": "BR-070/MT km 256"
        },
        {
            "br": "BR-101",
            "idPosto": 263,
            "km": 71,
            "latitude": "-29.857152",
            "longitude": "-50.247909",
            "municipio": "Osório",
            "pista": "D",
            "uf": "RS",
            "localizacao": "BR-101/RS km 71"
        },
        {
            "br": "BR-101",
            "idPosto": 95,
            "km": 412,
            "latitude": "-29.021762",
            "longitude": "-49.592702",
            "municipio": "Ararangu ",
            "pista": "D",
            "uf": "SC",
            "localizacao": "BR-101/SC km 412"
        },
        {
            "br": "BR-101",
            "idPosto": 94,
            "km": 245,
            "latitude": "-28.077239",
            "longitude": "-48.712293",
            "municipio": "Paulo Lopes",
            "pista": "D",
            "uf": "SC",
            "localizacao": "BR-101/SC km 245"
        },
        {
            "br": "BR-101",
            "idPosto": 93,
            "km": 133,
            "latitude": "-27.080246",
            "longitude": "-48.600581",
            "municipio": "Itapema",
            "pista": "D",
            "uf": "SC",
            "localizacao": "BR-101/SC km 133"
        },
        {
            "br": "BR-101",
            "idPosto": 92,
            "km": 6,
            "latitude": "-26.058517",
            "longitude": "-48.859824",
            "municipio": "Garuva",
            "pista": "D",
            "uf": "SC",
            "localizacao": "BR-101/SC km 6"
        },
        {
            "br": "BR-116",
            "idPosto": 67,
            "km": 194,
            "latitude": "-26.0702",
            "longitude": "-49.737586",
            "municipio": "Rio Negro",
            "pista": "S",
            "uf": "PR",
            "localizacao": "BR-116/PR km 194"
        },
        {
            "br": "BR-116",
            "idPosto": 66,
            "km": 0,
            "latitude": "-25.074741",
            "longitude": "-48.589523",
            "municipio": "Campina Grande do Sul",
            "pista": "D",
            "uf": "PR",
            "localizacao": "BR-116/PR km 0"
        },
        {
            "br": "BR-116",
            "idPosto": 273,
            "km": 0,
            "latitude": "-28.492804",
            "longitude": "-50.911045",
            "municipio": "Vacaria",
            "pista": "S",
            "uf": "RS",
            "localizacao": "BR-116/RS km 0"
        },
        {
            "br": "BR-153",
            "idPosto": 119,
            "km": 459,
            "latitude": "-26.300554",
            "longitude": "-51.208692",
            "municipio": "Porto Vitória",
            "pista": "D",
            "uf": "PR",
            "localizacao": "BR-153/PR km 459"
        },
        {
            "br": "BR-153",
            "idPosto": 237,
            "km": 24,
            "latitude": "-23.216511",
            "longitude": "-49.993667",
            "municipio": "Jacarezinho",
            "pista": "D",
            "uf": "PR",
            "localizacao": "BR-153/PR km 24"
        },
        {
            "br": "BR-153",
            "idPosto": 87,
            "km": 451,
            "latitude": "-30.316669",
            "longitude": "-53.203582",
            "municipio": "Caçapava do Sul",
            "pista": "S",
            "uf": "RS",
            "localizacao": "BR-153/RS km 451"
        },
        {
            "br": "BR-158",
            "idPosto": 115,
            "km": 59,
            "latitude": "-19.634066",
            "longitude": "-51.209986",
            "municipio": "Paranaíba",
            "pista": "S",
            "uf": "MS",
            "localizacao": "BR-158/MS km 59"
        },
        {
            "br": "BR-158",
            "idPosto": 269,
            "km": 458,
            "latitude": "-30.242561",
            "longitude": "-54.923347",
            "municipio": "Ros rio do Sul",
            "pista": "S",
            "uf": "RS",
            "localizacao": "BR-158/RS km 458"
        },
        {
            "br": "BR-158",
            "idPosto": 85,
            "km": 293,
            "latitude": "-29.649858",
            "longitude": "-53.756859",
            "municipio": "Itaara",
            "pista": "S",
            "uf": "RS",
            "localizacao": "BR-158/RS km 293"
        },
        {
            "br": "BR-158",
            "idPosto": 84,
            "km": 42,
            "latitude": "-27.447165",
            "longitude": "-53.41437",
            "municipio": "Seberi",
            "pista": "S",
            "uf": "RS",
            "localizacao": "BR-158/RS km 42"
        },
        {
            "br": "BR-163",
            "idPosto": 48,
            "km": 272,
            "latitude": "-22.147552",
            "longitude": "-54.631742",
            "municipio": "Dourados",
            "pista": "D",
            "uf": "MS",
            "localizacao": "BR-163/MS km 272"
        },
        {
            "br": "BR-163",
            "idPosto": 296,
            "km": 419,
            "latitude": "-20.684999",
            "longitude": "-54.553628",
            "municipio": "Campo Grande",
            "pista": "S",
            "uf": "MS",
            "localizacao": "BR-163/MS km 419"
        },
        {
            "br": "BR-163",
            "idPosto": 2,
            "km": 702,
            "latitude": "-12.809983",
            "longitude": "-55.830377",
            "municipio": "Sorriso",
            "pista": "S",
            "uf": "MT",
            "localizacao": "BR-163/MT km 702"
        },
        {
            "br": "BR-163",
            "idPosto": 53,
            "km": 135,
            "latitude": "-16.212433",
            "longitude": "-54.779291",
            "municipio": "Rondonópolis",
            "pista": "S",
            "uf": "MT",
            "localizacao": "BR-163/MT km 135"
        },
        {
            "br": "BR-163",
            "idPosto": 121,
            "km": 868,
            "latitude": "-11.34051",
            "longitude": "-55.3316",
            "municipio": "Cláudia",
            "pista": "S",
            "uf": "MT",
            "localizacao": "BR-163/MT km 868"
        },
        {
            "br": "BR-163",
            "idPosto": 275,
            "km": 73,
            "latitude": "-26.637863",
            "longitude": "-53.518486",
            "municipio": "Guaraciaba",
            "pista": "S",
            "uf": "SC",
            "localizacao": "BR-163/SC km 73"
        },
        {
            "br": "BR-174",
            "idPosto": 52,
            "km": 90,
            "latitude": "-15.845936",
            "longitude": "-57.855853",
            "municipio": "Cáceres",
            "pista": "S",
            "uf": "MT",
            "localizacao": "BR-174/MT km 90"
        },
        {
            "br": "BR-174",
            "idPosto": 262,
            "km": 439,
            "latitude": "-13.664117",
            "longitude": "-59.792933",
            "municipio": "Comodoro",
            "pista": "D",
            "uf": "MT",
            "localizacao": "BR-174/MT km 439"
        },
        {
            "br": "BR-262",
            "idPosto": 209,
            "km": 558,
            "latitude": "-20.094162",
            "longitude": "-56.742655",
            "municipio": "Miranda",
            "pista": "D",
            "uf": "MS",
            "localizacao": "BR-262/MS km 558"
        },
        {
            "br": "BR-267",
            "idPosto": 114,
            "km": 224,
            "latitude": "-21.509804",
            "longitude": "-54.247582",
            "municipio": "Nova Alvorada do Sul",
            "pista": "D",
            "uf": "MS",
            "localizacao": "BR-267/MS km 224"
        },
        {
            "br": "BR-272",
            "idPosto": 236,
            "km": 418,
            "latitude": "-24.178995",
            "longitude": "-52.934083",
            "municipio": "Goioer?",
            "pista": "S",
            "uf": "PR",
            "localizacao": "BR-272/PR km 418"
        },
        {
            "br": "BR-277",
            "idPosto": 234,
            "km": 457,
            "latitude": "-25.368283",
            "longitude": "-52.448009",
            "municipio": "Laranjeiras do Sul",
            "pista": "S",
            "uf": "PR",
            "localizacao": "BR-277/PR km 457"
        },
        {
            "br": "BR-277",
            "idPosto": 113,
            "km": 140,
            "latitude": "-25.470944",
            "longitude": "-49.680415",
            "municipio": "Balsa Nova",
            "pista": "D",
            "uf": "PR",
            "localizacao": "BR-277/PR km 140"
        },
        {
            "br": "BR-277",
            "idPosto": 112,
            "km": 9,
            "latitude": "-25.563807",
            "longitude": "-48.63467",
            "municipio": "Paranaguá",
            "pista": "D",
            "uf": "PR",
            "localizacao": "BR-277/PR km 9"
        },
        {
            "br": "BR-277",
            "idPosto": 69,
            "km": 586,
            "latitude": "-25.020676",
            "longitude": "-53.546515",
            "municipio": "Cascavel",
            "pista": "D",
            "uf": "PR",
            "localizacao": "BR-277/PR km 586"
        },
        {
            "br": "BR-277",
            "idPosto": 68,
            "km": 343,
            "latitude": "-25.342997",
            "longitude": "-51.436362",
            "municipio": "Guarapuava",
            "pista": "D",
            "uf": "PR",
            "localizacao": "BR-277/PR km 343"
        },
        {
            "br": "BR-280",
            "idPosto": 300,
            "km": 178,
            "latitude": "-26.179372",
            "longitude": "-49.979018",
            "municipio": "Mafra",
            "pista": "S",
            "uf": "SC",
            "localizacao": "BR-280/SC km 178"
        },
        {
            "br": "BR-280",
            "idPosto": 118,
            "km": 35,
            "latitude": "-26.46578",
            "longitude": "-48.956389",
            "municipio": "Guaramirim",
            "pista": "S",
            "uf": "SC",
            "localizacao": "BR-280/SC km 35"
        },
        {
            "br": "BR-282",
            "idPosto": 99,
            "km": 605,
            "latitude": "-26.76685",
            "longitude": "-53.213823",
            "municipio": "Maravilha",
            "pista": "S",
            "uf": "SC",
            "localizacao": "BR-282/SC km 605"
        },
        {
            "br": "BR-282",
            "idPosto": 274,
            "km": 128,
            "latitude": "-27.810297",
            "longitude": "-49.536586",
            "municipio": "Bom Retiro",
            "pista": "S",
            "uf": "SC",
            "localizacao": "BR-282/SC km 128"
        },
        {
            "br": "BR-283",
            "idPosto": 272,
            "km": 2,
            "latitude": "-27.415944",
            "longitude": "-51.235631",
            "municipio": "Campos Novos",
            "pista": "S",
            "uf": "SC",
            "localizacao": "BR-283/SC km 2"
        },
        {
            "br": "BR-285",
            "idPosto": 265,
            "km": 304,
            "latitude": "-28.278666",
            "longitude": "-52.694975",
            "municipio": "Carazinho",
            "pista": "D",
            "uf": "RS",
            "localizacao": "BR-285/RS km 304"
        },
        {
            "br": "BR-290",
            "idPosto": 86,
            "km": 183,
            "latitude": "-30.180504",
            "longitude": "-52.341178",
            "municipio": "Pantano Grande",
            "pista": "S",
            "uf": "RS",
            "localizacao": "BR-290/RS km 183"
        },
        {
            "br": "BR-290",
            "idPosto": 88,
            "km": 698,
            "latitude": "-29.819975",
            "longitude": "-56.990721",
            "municipio": "Uruguaiana",
            "pista": "S",
            "uf": "RS",
            "localizacao": "BR-290/RS km 698"
        },
        {
            "br": "BR-293",
            "idPosto": 89,
            "km": 189,
            "latitude": "-31.259628",
            "longitude": "-54.15966",
            "municipio": "Bag?",
            "pista": "S",
            "uf": "RS",
            "localizacao": "BR-293/RS km 189"
        },
        {
            "br": "BR-359",
            "idPosto": 210,
            "km": 166,
            "latitude": "-18.391753",
            "longitude": "-54.419293",
            "municipio": "Coxim",
            "pista": "S",
            "uf": "MS",
            "localizacao": "BR-359/MS km 166"
        },
        {
            "br": "BR-369",
            "idPosto": 240,
            "km": 214,
            "latitude": "-23.578023",
            "longitude": "-51.553719",
            "municipio": "Apucarana",
            "pista": "D",
            "uf": "PR",
            "localizacao": "BR-369/PR km 214"
        },
        {
            "br": "BR-373",
            "idPosto": 235,
            "km": 394,
            "latitude": "-25.800509",
            "longitude": "-52.27694",
            "municipio": "Chopinzinho",
            "pista": "S",
            "uf": "PR",
            "localizacao": "BR-373/PR km 394"
        },
        {
            "br": "BR-376",
            "idPosto": 71,
            "km": 645,
            "latitude": "-25.878028",
            "longitude": "-48.935117",
            "municipio": "Guaratuba",
            "pista": "D",
            "uf": "PR",
            "localizacao": "BR-376/PR km 645"
        },
        {
            "br": "BR-376",
            "idPosto": 295,
            "km": 433,
            "latitude": "-24.845424",
            "longitude": "-50.474161",
            "municipio": "Ipiranga",
            "pista": "S",
            "uf": "PR",
            "localizacao": "BR-376/PR km 433"
        },
        {
            "br": "BR-377",
            "idPosto": 267,
            "km": 200,
            "latitude": "-29.125833",
            "longitude": "-54.809813",
            "municipio": "Santiago",
            "pista": "S",
            "uf": "RS",
            "localizacao": "BR-377/RS km 200"
        },
        {
            "br": "BR-386",
            "idPosto": 264,
            "km": 401,
            "latitude": "-29.818054",
            "longitude": "-51.382682",
            "municipio": "Montenegro",
            "pista": "D",
            "uf": "RS",
            "localizacao": "BR-386/RS km 401"
        },
        {
            "br": "BR-392",
            "idPosto": 266,
            "km": 681,
            "latitude": "-27.955762",
            "longitude": "-55.135447",
            "municipio": "Porto Xavier",
            "pista": "S",
            "uf": "RS",
            "localizacao": "BR-392/RS km 681"
        },
        {
            "br": "BR-392",
            "idPosto": 90,
            "km": 26,
            "latitude": "-31.893121",
            "longitude": "-52.319027",
            "municipio": "Rio Grande",
            "pista": "S",
            "uf": "RS",
            "localizacao": "BR-392/RS km 26"
        },
        {
            "br": "BR-453",
            "idPosto": 271,
            "km": 148,
            "latitude": "-29.096141",
            "longitude": "-50.648581",
            "municipio": "São Francisco de Paula",
            "pista": "S",
            "uf": "RS",
            "localizacao": "BR-453/RS km 148"
        },
        {
            "br": "BR-470",
            "idPosto": 299,
            "km": 57,
            "latitude": "-26.870387",
            "longitude": "-49.21157",
            "municipio": "Indaial",
            "pista": "S",
            "uf": "SC",
            "localizacao": "BR-470/SC km 57"
        },
        {
            "br": "BR-471",
            "idPosto": 270,
            "km": 483,
            "latitude": "-32.482049",
            "longitude": "-52.577998",
            "municipio": "Rio Grande",
            "pista": "S",
            "uf": "RS",
            "localizacao": "BR-471/RS km 483"
        },
        {
            "br": "BR-472",
            "idPosto": 91,
            "km": 488,
            "latitude": "-29.278333",
            "longitude": "-56.586848",
            "municipio": "Itaqui",
            "pista": "S",
            "uf": "RS",
            "localizacao": "BR-472/RS km 488"
        },
        {
            "br": "BR-476",
            "idPosto": 72,
            "km": 172,
            "latitude": "-25.71401",
            "longitude": "-49.629868",
            "municipio": "Lapa",
            "pista": "S",
            "uf": "PR",
            "localizacao": "BR-476/PR km 172"
        },
        {
            "br": "BR-487",
            "idPosto": 232,
            "km": 188,
            "latitude": "-24.110136",
            "longitude": "-52.322365",
            "municipio": "Campo Mourão",
            "pista": "S",
            "uf": "PR",
            "localizacao": "BR-487/PR km 188"
        }
    ]
}