cod_cidade,nome_cidade,populacao_2021,area,latitude,longitude,cod_uf,nome_uf,uf,pais,densidade_2021
1100106,Arranjo Populacional Internacional de Guajará-Mirim/Brasil - Guayaramerín/Bolívia,46930.0,24856.877,-10.7889,-65.3296,11,Rondônia,RO,BRA,1.8880086987597033
1100205,Arranjo Populacional de Porto Velho/RO,577020.0,40934.82,-8.76077,-63.8999,11,Rondônia,RO,BRA,14.096067846395806
1200054,Arranjo Populacional Internacional de Assis Brasil/Brasil,7649.0,4979.073,-10.9298,-69.5738,12,Acre,AC,BRA,1.5362297359367898
1200104,Arranjo Populacional Internacional de Cobija/Bolívia - Brasiléia/Brasil,46102.0,5580.848,-10.995,-68.7497,12,Acre,AC,BRA,8.260751771057015
1303007,Arranjo Populacional de Nhamundá/AM,28659.0,25878.709000000003,-2.20793,-56.7112,13,Amazonas,AM,BRA,1.107435459782789
1304062,Arranjo Populacional Internacional de Tabatinga/Brasil - Letícia/Colômbia,68502.0,3266.062,-4.2416,-69.9383,13,Amazonas,AM,BRA,20.97388230841913
1400159,Arranjo Populacional Internacional de Bonfim/Brasil - Ireng/Guiana,12701.0,8079.914,3.36161,-59.8333,14,Roraima,RR,BRA,1.5719226714541765
1501402,Arranjo Populacional de Belém/PA,2247422.0,1541.087,-1.4554,-48.4898,15,Pará,PA,BRA,1458.3355774203533
1507458,Arranjo Populacional de São Geraldo do Araguaia/PA,36066.0,4358.873,-6.39471,-48.5592,15,Pará,PA,BRA,8.274157104370786
1507904,Arranjo Populacional de Soure - Salvaterra/PA,50144.0,3775.9120000000003,-0.73032,-48.5015,15,Pará,PA,BRA,13.279970507787256
1600279,Arranjo Populacional de Laranjal do Jari/AP - Almeirim/PA,102918.0,106246.775,-0.804911,-52.453,16,Amapá,AP,BRA,0.9686694019653773
1600303,Arranjo Populacional de Macapá/AP,647165.0,8105.073,0.034934,-51.0694,16,Amapá,AP,BRA,79.8469057588994
1600501,Arranjo Populacional Internacional de Oiapoque/Brasil,28534.0,23034.392,3.84074,-51.8331,16,Amapá,AP,BRA,1.2387563778544708
1713205,Arranjo Populacional de Miracema do Tocantins/TO,25316.0,5273.52,-9.56556,-48.393,17,Tocantins,TO,BRA,4.800588601162032
1716505,Arranjo Populacional de Pedro Afonso/TO,21036.0,4053.386,-8.97034,-48.1729,17,Tocantins,TO,BRA,5.189735199164353
1721208,Arranjo Populacional de Tocantinópolis/TO - Porto Franco/MA,47114.0,2504.1099999999997,-6.32447,-47.4224,17,Tocantins,TO,BRA,18.814668684682385
2100501,Arranjo Populacional de Alto Parnaíba/MA - Santa Filomena/PI,17489.0,16421.077,-9.10273,-45.9303,21,Maranhão,MA,BRA,1.0650336759275898
2102804,Arranjo Populacional de Carolina/MA,33043.0,8258.933,-7.33584,-47.4634,21,Maranhão,MA,BRA,4.000880016825418
2104057,Arranjo Populacional de Estreito/MA,50146.0,2957.058,-6.56077,-47.4431,21,Maranhão,MA,BRA,16.958071163974463
2105302,Arranjo Populacional de Imperatriz/MA,272903.0,1701.288,-5.51847,-47.4777,21,Maranhão,MA,BRA,160.40964257668307
2107100,Arranjo Populacional de Morros - Axixá/MA,31942.0,1872.583,-2.85379,-44.0357,21,Maranhão,MA,BRA,17.05772187401039
2108207,Arranjo Populacional de Pedreiras/MA,61376.0,553.6759999999999,-4.56482,-44.6006,21,Maranhão,MA,BRA,110.8518339245335
2109205,Arranjo Populacional de Presidente Juscelino - Cachoeira Grande/MA,22463.0,1220.608,-2.91872,-44.0715,21,Maranhão,MA,BRA,18.403123689177853
2109809,Arranjo Populacional de Santa Helena - Turilândia/MA,68941.0,3698.79,-2.24426,-45.29,21,Maranhão,MA,BRA,18.638798093430555
2111300,Arranjo Populacional de São Luís/MA,1453128.0,969.832,-2.53874,-44.2825,21,Maranhão,MA,BRA,1498.3296076021413
2200509,Arranjo Populacional de Amarante/PI - São Francisco do Maranhão/MA,29835.0,3436.344,-6.24304,-42.8433,22,Piauí,PI,BRA,8.682192469671255
2200608,Arranjo Populacional de Angical do Piauí/PI,8951.0,255.64800000000002,-6.08786,-42.74,22,Piauí,PI,BRA,35.01298660658405
2203909,Arranjo Populacional de Floriano/PI,79137.0,5617.393,-6.77182,-43.0241,22,Piauí,PI,BRA,14.087851784626784
2208007,Arranjo Populacional de Picos/PI,84104.0,1017.89,-7.07721,-41.467,22,Piauí,PI,BRA,82.62582400848815
2211001,Arranjo Populacional de Teresina/PI,1042443.0,3154.513,-5.09194,-42.8034,22,Piauí,PI,BRA,330.46083500052146
2211209,Arranjo Populacional de Uruçuí/PI,27389.0,10197.655999999999,-7.23944,-44.5577,22,Piauí,PI,BRA,2.6858132888577533
2304400,Arranjo Populacional de Fortaleza/CE,3695896.0,3070.151,-3.71664,-38.5423,23,Ceará,CE,BRA,1203.8157080873223
2307304,Arranjo Populacional de Juazeiro do Norte/CE,473839.0,2005.096,-7.19621,-39.3076,23,Ceará,CE,BRA,236.3173633581634
2307403,Arranjo Populacional de Jucás - Cariús/CE,43649.0,1976.753,-6.51523,-39.5187,23,Ceará,CE,BRA,22.08116036753201
2311603,Arranjo Populacional de Redenção - Acarape/CE,44378.0,377.991,-4.21587,-38.7277,23,Ceará,CE,BRA,117.40491175715825
2312908,Arranjo Populacional de Sobral/CE,237117.0,2637.2520000000004,-3.68913,-40.3482,23,Ceará,CE,BRA,89.91063425110681
2401859,Arranjo Populacional de Caiçara do Norte/RN,9259.0,514.394,-5.07091,-36.0717,24,Rio Grande do Norte,RN,BRA,17.999821148769232
2408102,Arranjo Populacional de Natal/RN,1386227.0,1191.938,-5.79357,-35.1986,24,Rio Grande do Norte,RN,BRA,1163.0026058402366
2411502,Arranjo Populacional de Santo Antônio/RN,30550.0,494.433,-6.31195,-35.4739,24,Rio Grande do Norte,RN,BRA,61.78794700191937
2412203,Arranjo Populacional de São José de Mipibu - Nísia Floresta/RN,72832.0,597.706,-6.0773,-35.2417,24,Rio Grande do Norte,RN,BRA,121.85254958123224
2503605,Arranjo Populacional de Caiçara - Logradouro/PB,11588.0,166.553,-6.62115,-35.4581,25,Paraíba,PB,BRA,69.57545045721182
2504009,Arranjo Populacional de Campina Grande/PB,513824.0,1383.145,-7.22196,-35.8731,25,Paraíba,PB,BRA,371.4896124412119
2505105,Arranjo Populacional de Cuité - Nova Floresta/PB,30945.0,781.39,-6.47647,-36.1515,25,Paraíba,PB,BRA,39.60250323142093
2505808,Arranjo Populacional de Duas Estradas - Serra da Raiz/PB,6683.0,58.691,-6.68499,-35.418,25,Paraíba,PB,BRA,113.867543575676
2506301,Arranjo Populacional de Guarabira/PB,64326.0,203.29500000000002,-6.85064,-35.485,25,Paraíba,PB,BRA,316.4170294399764
2507309,Arranjo Populacional de Jacaraú/PB,20606.0,331.06100000000004,-6.61453,-35.289,25,Paraíba,PB,BRA,62.242305798629246
2507507,Arranjo Populacional de João Pessoa/PB,1169866.0,1251.265,-7.11509,-34.8641,25,Paraíba,PB,BRA,934.9466340063855
2508901,Arranjo Populacional de Mamanguape - Rio Tinto/PB,69643.0,802.674,-6.8337,-35.1213,25,Paraíba,PB,BRA,86.76374219172416
2510808,Arranjo Populacional de Patos/PB,110775.0,620.05,-7.01743,-37.2747,25,Paraíba,PB,BRA,178.65494718167892
2516003,Arranjo Populacional de Solânea - Bananeiras/PB,47271.0,488.68399999999997,-6.75161,-35.6636,25,Paraíba,PB,BRA,96.73122099352547
2601102,Arranjo Populacional de Araripina/PE,93891.0,2174.179,-7.57073,-40.494,26,Pernambuco,PE,BRA,43.184576798874424
2603207,Arranjo Populacional de Caetés - Capoeiras/PE,49113.0,631.2750000000001,-8.7803,-36.6268,26,Pernambuco,PE,BRA,77.7996911013425
2607653,Arranjo Populacional de Itambé/PE - Pedras de Fogo/PB,84524.0,828.557,-7.41403,-35.0963,26,Pernambuco,PE,BRA,102.01350057992389
2611101,Arranjo Populacional de Petrolina/PE - Juazeiro/BA,578916.0,11283.107,-9.38866,-40.5027,26,Pernambuco,PE,BRA,51.30820792535248
2611606,Arranjo Populacional de Recife/PE,4104434.0,3033.915,-8.04666,-34.8771,26,Pernambuco,PE,BRA,1352.850689620507
2704302,Arranjo Populacional de Maceió/AL,1235261.0,1592.157,-9.66599,-35.735,27,Alagoas,AL,BRA,775.8412015900442
2704500,Arranjo Populacional de Maragogi/AL - São José da Coroa Grande/PE,55219.0,403.34900000000005,-9.00744,-35.2267,27,Alagoas,AL,BRA,136.90129391668256
2706703,Arranjo Populacional de Penedo/AL,82693.0,959.775,-10.2874,-36.5819,27,Alagoas,AL,BRA,86.15873512021047
2800308,Arranjo Populacional de Aracaju/SE,1088032.0,1631.343,-10.9091,-37.0677,28,Sergipe,SE,BRA,666.9547728466667
2805703,Arranjo Populacional de Propriá/SE,33027.0,144.18,-10.2138,-36.8442,28,Sergipe,SE,BRA,229.06783187682063
2904308,Arranjo Populacional de Brejões - Nova Itarana/BA,22483.0,993.947,-13.1039,-39.7988,29,Bahia,BA,BRA,22.619918365868603
2904902,Arranjo Populacional de Cachoeira - Muritiba - Governador Mangabeira/BA,98663.0,691.279,-12.5994,-38.9587,29,Bahia,BA,BRA,142.72529615394075
2908309,Arranjo Populacional de Conceição do Almeida - Sapeaçu/BA,34508.0,416.054,-12.7836,-39.1715,29,Bahia,BA,BRA,82.94115667677754
2927408,Arranjo Populacional de Salvador/BA,3877453.0,3617.664,-12.9718,-38.5011,29,Bahia,BA,BRA,1071.8112572090718
2928109,Arranjo Populacional de Santa Maria da Vitória/BA,55250.0,3736.581,-13.3859,-44.2011,29,Bahia,BA,BRA,14.786244430403087
2932200,Arranjo Populacional de Ubaitaba - Aurelino Leal/BA,29726.0,626.496,-14.303,-39.3222,29,Bahia,BA,BRA,47.44802839922362
2933208,Arranjo Populacional de Vera Cruz - Itaparica/BA,66625.0,418.90999999999997,-12.9568,-38.6153,29,Bahia,BA,BRA,159.04370867250722
3101508,Arranjo Populacional de Além Paraíba/MG - Sapucaia/RJ,53708.0,1050.923,-21.8797,-42.7176,31,Minas Gerais,MG,BRA,51.10555197669097
3104007,Arranjo Populacional de Araxá/MG,113293.0,2343.31,-19.5902,-46.9438,31,Minas Gerais,MG,BRA,48.347423089561346
3105608,Arranjo Populacional de Barbacena/MG,157584.0,1419.9160000000002,-21.2214,-43.7703,31,Minas Gerais,MG,BRA,110.98121297316177
3106200,Arranjo Populacional de Belo Horizonte/MG,5273131.0,5517.5599999999995,-19.9102,-43.9266,31,Minas Gerais,MG,BRA,955.6998020864296
3106903,Arranjo Populacional de Bicas/MG,18367.0,228.737,-21.7232,-43.056,31,Minas Gerais,MG,BRA,80.29745952775458
3110608,Arranjo Populacional de Cambuí/MG,33753.0,368.218,-22.6115,-46.0572,31,Minas Gerais,MG,BRA,91.6658066688755
3113008,Arranjo Populacional de Caraí/MG,30078.0,1661.725,-17.1862,-41.7004,31,Minas Gerais,MG,BRA,18.100467887285802
3115508,Arranjo Populacional de Caxambu - Baependi/MG,40815.0,851.037,-21.9753,-44.9319,31,Minas Gerais,MG,BRA,47.95913691179114
3118304,Arranjo Populacional de Conselheiro Lafaiete/MG,237153.0,1432.868,-20.6634,-43.7846,31,Minas Gerais,MG,BRA,165.50931418665223
3120904,Arranjo Populacional de Curvelo/MG,88690.0,3823.2599999999998,-18.7527,-44.4303,31,Minas Gerais,MG,BRA,23.197480684023585
3131307,Arranjo Populacional de Ipatinga/MG,569830.0,2252.976,-19.4703,-42.5476,31,Minas Gerais,MG,BRA,252.92324463287667
3132404,Arranjo Populacional de Itajubá/MG,118734.0,814.538,-22.4225,-45.4598,31,Minas Gerais,MG,BRA,145.76852154227305
3133808,Arranjo Populacional de Itaúna/MG,105809.0,790.914,-20.0818,-44.5801,31,Minas Gerais,MG,BRA,133.7806638901322
3135100,Arranjo Populacional de Janaúba/MG,79867.0,2302.262,-15.8022,-43.3132,31,Minas Gerais,MG,BRA,34.69066509372087
3136207,Arranjo Populacional de João Monlevade/MG,91172.0,208.301,-19.8126,-43.1735,31,Minas Gerais,MG,BRA,437.6935300358616
3136702,Arranjo Populacional de Juiz de Fora/MG,601927.0,1985.145,-21.7595,-43.3398,31,Minas Gerais,MG,BRA,303.21563412244444
3137205,Arranjo Populacional de Lagoa da Prata/MG,57654.0,612.125,-20.0237,-45.5401,31,Minas Gerais,MG,BRA,94.18664488462323
3138203,Arranjo Populacional de Lavras/MG,122462.0,954.043,-21.248,-45.0009,31,Minas Gerais,MG,BRA,128.36109064266495
3141108,Arranjo Populacional de Matozinhos/MG,48365.0,347.786,-19.5543,-44.0868,31,Minas Gerais,MG,BRA,139.06540228761364
3145208,Arranjo Populacional de Nova Serrana/MG,111463.0,634.477,-19.8713,-44.9847,31,Minas Gerais,MG,BRA,175.676974894283
3147402,Arranjo Populacional de Paraopeba/MG,36723.0,781.662,-19.2732,-44.4044,31,Minas Gerais,MG,BRA,46.98066427688694
3147907,Arranjo Populacional de Passos/MG,120430.0,1556.8619999999999,-20.7193,-46.609,31,Minas Gerais,MG,BRA,77.35431913682781
3151206,Arranjo Populacional de Pirapora - Buritizeiro/MG,85029.0,7767.915,-17.3392,-44.934,31,Minas Gerais,MG,BRA,10.946180538793229
3151404,Arranjo Populacional de Pitangui/MG,33991.0,819.942,-19.6741,-44.8964,31,Minas Gerais,MG,BRA,41.45537123357506
3151602,Arranjo Populacional de Planura/MG - Colômbia/SP,18668.0,1046.1680000000001,-20.1376,-48.7,31,Minas Gerais,MG,BRA,17.8441703435777
3152105,Arranjo Populacional de Ponte Nova/MG,64674.0,559.711,-20.4111,-42.8978,31,Minas Gerais,MG,BRA,115.54891720905967
3152600,Arranjo Populacional de Pouso Alto/MG,8121.0,353.882,-22.1964,-44.9748,31,Minas Gerais,MG,BRA,22.948327408571217
3162500,Arranjo Populacional de São João del Rei/MG,111228.0,1679.568,-21.1311,-44.2526,31,Minas Gerais,MG,BRA,66.22417192992484
3163706,Arranjo Populacional de São Lourenço/MG,52765.0,254.88500000000002,-22.1166,-45.0506,31,Minas Gerais,MG,BRA,207.01492830099846
3167004,Arranjo Populacional de Serranos - Seritinga/MG,3806.0,327.942,-21.8857,-44.5125,31,Minas Gerais,MG,BRA,11.605710765928121
3167202,Arranjo Populacional de Sete Lagoas/MG,261233.0,906.113,-19.4569,-44.2413,31,Minas Gerais,MG,BRA,288.30068655896116
3169901,Arranjo Populacional de Ubá/MG,126328.0,480.125,-21.1204,-42.9359,31,Minas Gerais,MG,BRA,263.11481385055976
3171303,Arranjo Populacional de Viçosa/MG,83871.0,382.456,-20.7559,-42.8742,31,Minas Gerais,MG,BRA,219.29581442048234
3204252,Arranjo Populacional de Ponto Belo - Mucurici/ES,13484.0,900.639,-18.1253,-40.5458,32,Espirito Santo,ES,BRA,14.971592391624169
3205309,Arranjo Populacional de Vitória/ES,1904563.0,1733.83,-20.3155,-40.3128,32,Espirito Santo,ES,BRA,1098.47159179389
3300209,Arranjo Populacional de Araruama/RJ,165453.0,689.2529999999999,-22.8697,-42.3326,33,Rio de Janeiro,RJ,BRA,240.04683331084524
3300605,Arranjo Populacional de Bom Jesus do Itabapoana/RJ,47294.0,685.7429999999999,-21.1449,-41.6822,33,Rio de Janeiro,RJ,BRA,68.9675286514044
3300704,Arranjo Populacional de Cabo Frio/RJ,407520.0,969.02,-22.8894,-42.0286,33,Rio de Janeiro,RJ,BRA,420.5485954882252
3301009,Arranjo Populacional de Campos dos Goytacazes/RJ,551374.0,4484.883,-21.7622,-41.3181,33,Rio de Janeiro,RJ,BRA,122.94055385614297
3301504,Arranjo Populacional de Cordeiro - Cantagalo/RJ,42315.0,860.258,-22.0267,-42.3648,33,Rio de Janeiro,RJ,BRA,49.18873175256725
3302106,Arranjo Populacional de Itaocara/RJ,35247.0,527.724,-21.6748,-42.0758,33,Rio de Janeiro,RJ,BRA,66.79059508379379
3302403,Arranjo Populacional de Macaé - Rio das Ostras/RJ,511949.0,2551.096,-22.3768,-41.7848,33,Rio de Janeiro,RJ,BRA,200.6780615076814
3302809,Arranjo Populacional de Mendes - Engenheiro Paulo de Frontin/RJ,32819.0,234.70499999999998,-22.5245,-43.7312,33,Rio de Janeiro,RJ,BRA,139.8308514944292
3303856,Arranjo Populacional de Paty do Alferes - Miguel Pereira/RJ,53564.0,602.274,-22.4309,-43.4285,33,Rio de Janeiro,RJ,BRA,88.9362648894025
3303906,Arranjo Populacional de Petrópolis/RJ,319907.0,901.868,-22.52,-43.1926,33,Rio de Janeiro,RJ,BRA,354.7159894796134
3304201,Arranjo Populacional de Resende/RJ,200372.0,1676.0890000000002,-22.4705,-44.4509,33,Rio de Janeiro,RJ,BRA,119.54735100582367
3304557,Arranjo Populacional de Rio de Janeiro/RJ,12901184.0,6044.771,-22.9129,-43.2003,33,Rio de Janeiro,RJ,BRA,2134.2717532227443
3304706,Arranjo Populacional de Santo Antônio de Pádua/RJ,53496.0,794.3140000000001,-21.541,-42.1832,33,Rio de Janeiro,RJ,BRA,67.34868074841938
3306008,Arranjo Populacional de Três Rios - Paraíba do Sul/RJ,142441.0,1438.107,-22.1165,-43.2185,33,Rio de Janeiro,RJ,BRA,99.04756739241239
3306107,Arranjo Populacional de Valença/RJ,82695.0,1648.813,-22.2445,-43.7129,33,Rio de Janeiro,RJ,BRA,50.154262490652364
3306305,Arranjo Populacional de Volta Redonda - Barra Mansa/RJ,485725.0,811.492,-22.5202,-44.0996,33,Rio de Janeiro,RJ,BRA,598.5579648351433
3500105,Arranjo Populacional de Adamantina - Lucélia/SP,69645.0,1063.5140000000001,-21.682,-51.0737,35,São Paulo,SP,BRA,65.48573878670143
3500501,Arranjo Populacional de Águas de Lindóia/SP,27109.0,108.882,-22.4733,-46.6314,35,São Paulo,SP,BRA,248.97595562168217
3501608,Arranjo Populacional de Americana - Santa Bárbara d´Oeste/SP,501364.0,478.72999999999996,-22.7374,-47.3331,35,São Paulo,SP,BRA,1047.2792597079774
3501905,Arranjo Populacional de Amparo/SP,81326.0,555.631,-22.7088,-46.772,35,São Paulo,SP,BRA,146.3669233718061
3503208,Arranjo Populacional de Araraquara/SP,306641.0,1840.848,-21.7845,-48.178,35,São Paulo,SP,BRA,166.57594760675516
3503802,Arranjo Populacional de Artur Nogueira/SP,71852.0,243.603,-22.5727,-47.1727,35,São Paulo,SP,BRA,294.95531664224166
3504107,Arranjo Populacional de Atibaia/SP,171884.0,586.8870000000001,-23.1171,-46.5563,35,São Paulo,SP,BRA,292.8740967170852
3505302,Arranjo Populacional de Barra Bonita - Igaraçu do Tietê/SP,60946.0,247.868,-22.4909,-48.5583,35,São Paulo,SP,BRA,245.8808720770733
3506003,Arranjo Populacional de Bauru/SP,395596.0,1070.0929999999998,-22.3246,-49.0871,35,São Paulo,SP,BRA,369.6837564585509
3506508,Arranjo Populacional de Birigui/SP,140997.0,1077.721,-21.291,-50.3432,35,São Paulo,SP,BRA,130.82885088070103
3507001,Arranjo Populacional de Boituva - Iperó/SP,102081.0,419.243,-23.2855,-47.6786,35,São Paulo,SP,BRA,243.48885968280925
3509502,Arranjo Populacional de Campinas/SP,2216244.0,1773.948,-22.9053,-47.0659,35,São Paulo,SP,BRA,1249.3286161713872
3510203,Arranjo Populacional de Capão Bonito/SP,54784.0,1973.592,-24.0113,-48.3482,35,São Paulo,SP,BRA,27.758523544886682
3510401,Arranjo Populacional de Capivari/SP,66099.0,444.52299999999997,-22.9951,-47.5071,35,São Paulo,SP,BRA,148.6964678992988
3510500,Arranjo Populacional de Caraguatatuba - Ubatuba - São Sebastião/SP,345844.0,1941.836,-23.6125,-45.4125,35,São Paulo,SP,BRA,178.1015492554469
3511102,Arranjo Populacional de Catanduva/SP,163739.0,1029.962,-21.1314,-48.977,35,São Paulo,SP,BRA,158.97576803804412
3511508,Arranjo Populacional de Cerquilho - Tietê/SP,93577.0,532.1990000000001,-23.1665,-47.7459,35,São Paulo,SP,BRA,175.8308452289463
3513405,Arranjo Populacional de Cruzeiro/SP,90256.0,472.766,-22.5728,-44.969,35,São Paulo,SP,BRA,190.91051386944068
3515509,Arranjo Populacional de Fernandópolis/SP,75834.0,1137.4650000000001,-20.2806,-50.2471,35,São Paulo,SP,BRA,66.66930411045614
3516200,Arranjo Populacional de Franca/SP,406291.0,2376.58,-20.5352,-47.4039,35,São Paulo,SP,BRA,170.95616389938485
3516804,Arranjo Populacional de Gastão Vidigal - Monções/SP,7185.0,284.921,-20.7948,-50.1912,35,São Paulo,SP,BRA,25.217516434380055
3518404,Arranjo Populacional de Guaratinguetá/SP,195894.0,1048.0159999999998,-22.8075,-45.1938,35,São Paulo,SP,BRA,186.91890200149618
3518602,Arranjo Populacional de Guariba/SP,46434.0,404.71,-21.3594,-48.2316,35,São Paulo,SP,BRA,114.73400706678856
3520103,Arranjo Populacional de Igarapava/SP,47474.0,773.9680000000001,-20.0407,-47.7466,35,São Paulo,SP,BRA,61.33845326938581
3520301,Arranjo Populacional de Iguape/SP,42669.0,2175.362,-24.699,-47.5537,35,São Paulo,SP,BRA,19.61466643252939
3522307,Arranjo Populacional de Itapetininga/SP,173337.0,1948.9499999999998,-23.5886,-48.0483,35,São Paulo,SP,BRA,88.93865927807282
3523909,Arranjo Populacional de Itu - Salto/SP,297929.0,773.7760000000001,-23.2544,-47.2927,35,São Paulo,SP,BRA,385.0326192593205
3524808,Arranjo Populacional de Jales/SP,52948.0,506.539,-20.2672,-50.5494,35,São Paulo,SP,BRA,104.52897012865742
3525904,Arranjo Populacional de Jundiaí/SP,835251.0,1270.124,-23.1852,-46.8974,35,São Paulo,SP,BRA,657.6137447997203
3526704,Arranjo Populacional de Leme/SP,109857.0,553.001,-22.1809,-47.3841,35,São Paulo,SP,BRA,198.65606029645517
3526902,Arranjo Populacional de Limeira/SP,335765.0,695.829,-22.566,-47.397,35,São Paulo,SP,BRA,482.53953198271415
3527207,Arranjo Populacional de Lorena/SP,94800.0,467.42100000000005,-22.7334,-45.1197,35,São Paulo,SP,BRA,202.81502114795867
3529005,Arranjo Populacional de Marília/SP,259622.0,1636.8990000000001,-22.2171,-49.9501,35,São Paulo,SP,BRA,158.60599829311397
3529302,Arranjo Populacional de Matão/SP,93157.0,674.628,-21.6025,-48.364,35,São Paulo,SP,BRA,138.08647135903044
3530706,Arranjo Populacional de Mogi Guaçu - Mogi Mirim/SP,259751.0,1384.605,-22.3675,-46.9428,35,São Paulo,SP,BRA,187.59935143958023
3533007,Arranjo Populacional de Nova Granada/SP,26333.0,774.7420000000001,-20.5321,-49.3123,35,São Paulo,SP,BRA,33.98937969027108
3534708,Arranjo Populacional de Ourinhos/SP,120504.0,353.277,-22.9797,-49.8697,35,São Paulo,SP,BRA,341.10344007676696
3535507,Arranjo Populacional de Paraguaçu Paulista/SP,47019.0,1120.443,-22.4114,-50.5732,35,São Paulo,SP,BRA,41.96465148160147
3536604,Arranjo Populacional de Paulo de Faria - Orindiúva/SP,16291.0,985.364,-20.0296,-49.4,35,São Paulo,SP,BRA,16.532976646193692
3538709,Arranjo Populacional de Piracicaba/SP,472545.0,1880.31,-22.7338,-47.6476,35,São Paulo,SP,BRA,251.31228361280853
3538907,Arranjo Populacional de Pirajuí/SP,32066.0,915.393,-21.999,-49.4608,35,São Paulo,SP,BRA,35.02976317275749
3540002,Arranjo Populacional de Pompéia/SP,29062.0,1103.6109999999999,-22.107,-50.176,35,São Paulo,SP,BRA,26.333554123690323
3541406,Arranjo Populacional de Presidente Prudente/SP,364013.0,4971.54,-22.1207,-51.3925,35,São Paulo,SP,BRA,73.2193646234366
3541505,Arranjo Populacional de Presidente Venceslau/SP,45665.0,1306.362,-21.8732,-51.8447,35,São Paulo,SP,BRA,34.95585450281009
3543402,Arranjo Populacional de Ribeirão Preto/SP,890747.0,2299.9190000000003,-21.1699,-47.8099,35,São Paulo,SP,BRA,387.2949438654143
3543907,Arranjo Populacional de Rio Claro/SP,245222.0,786.723,-22.3984,-47.5546,35,São Paulo,SP,BRA,311.7005604259695
3544202,Arranjo Populacional de Riolândia/SP,15432.0,849.402,-19.9868,-49.6836,35,São Paulo,SP,BRA,18.168075893393233
3545605,Arranjo Populacional de Santa Adélia - Palmares Paulista - Ariranha/SP,39181.0,545.018,-21.2427,-48.8063,35,São Paulo,SP,BRA,71.88936879148945
3546603,Arranjo Populacional de Santa Fé do Sul/SP,47878.0,1124.154,-20.2083,-50.932,35,São Paulo,SP,BRA,42.59025009029012
3548054,Arranjo Populacional de Santo Antônio do Aracanguá/SP,12758.0,1382.248,-20.9331,-50.498,35,São Paulo,SP,BRA,9.229892175644313
3548500,Arranjo Populacional de Baixada Santista/SP,1761700.0,1610.975,-23.9535,-46.335,35,São Paulo,SP,BRA,1093.5613525970298
3548906,Arranjo Populacional de São Carlos/SP,292745.0,1427.885,-22.0174,-47.886,35,São Paulo,SP,BRA,205.02001211582166
3549102,Arranjo Populacional de São João da Boa Vista/SP,100577.0,659.072,-21.9707,-46.7944,35,São Paulo,SP,BRA,152.60396436201205
3549805,Arranjo Populacional de São José do Rio Preto/SP,632816.0,2594.674,-20.8113,-49.3758,35,São Paulo,SP,BRA,243.89036927182374
3549904,Arranjo Populacional de São José dos Campos/SP,1641433.0,4578.957,-23.1896,-45.8841,35,São Paulo,SP,BRA,358.47311953355313
3550308,Arranjo Populacional de São Paulo/SP,21986195.0,7153.9710000000005,-23.5329,-46.6395,35,São Paulo,SP,BRA,3073.285452233452
3550407,Arranjo Populacional de São Pedro/SP,39886.0,614.89,-22.5483,-47.9096,35,São Paulo,SP,BRA,64.86688676023354
3550605,Arranjo Populacional de São Roque - Mairinque/SP,140799.0,517.057,-23.5226,-47.1357,35,São Paulo,SP,BRA,272.3084688922111
3552205,Arranjo Populacional de Sorocaba/SP,920373.0,1253.394,-23.4969,-47.4451,35,São Paulo,SP,BRA,734.304616106348
3555000,Arranjo Populacional de Tupã/SP,70883.0,1127.804,-21.9335,-50.5191,35,São Paulo,SP,BRA,62.85045983167287
3555109,Arranjo Populacional de Tupi Paulista/SP,18003.0,278.928,-21.3825,-51.575,35,São Paulo,SP,BRA,64.54353811736362
3556305,Arranjo Populacional de Valparaíso/SP,30182.0,1159.348,-21.2229,-50.8699,35,São Paulo,SP,BRA,26.03359819484745
3557105,Arranjo Populacional de Votuporanga/SP,105494.0,1035.699,-20.4237,-49.9781,35,São Paulo,SP,BRA,101.85777914239561
4100202,Arranjo Populacional de Adrianópolis/PR - Ribeira/SP,9117.0,1685.07,-24.6606,-48.9922,41,Paraná,PR,BRA,5.410457725791807
4104808,Arranjo Populacional de Cascavel/PR,346128.0,2417.389,-24.9573,-53.459,41,Paraná,PR,BRA,143.1825825301596
4105904,Arranjo Populacional de Colorado/PR,28280.0,593.337,-22.8374,-51.9743,41,Paraná,PR,BRA,47.662626803991664
4106902,Arranjo Populacional de Curitiba/PR,3542615.0,7872.808,-25.4195,-49.2646,41,Paraná,PR,BRA,449.9811249048624
4108304,Arranjo Populacional Internacional de Foz do Iguaçu/Brasil - Ciudad del Este/Paraguai,281898.0,877.45,-25.5427,-54.5827,41,Paraná,PR,BRA,321.2695880107128
4108809,Arranjo Populacional Internacional de Guaíra/Brasil,33497.0,563.742,-24.085,-54.2573,41,Paraná,PR,BRA,59.41902501498913
4112108,Arranjo Populacional de Jandaia do Sul/PR,29248.0,350.988,-23.6011,-51.6448,41,Paraná,PR,BRA,83.33048423307919
4113700,Arranjo Populacional de Londrina/PR,757371.0,2604.864,-23.304,-51.1691,41,Paraná,PR,BRA,290.7526074297929
4115200,Arranjo Populacional de Maringá/PR,663416.0,2430.697,-23.4205,-51.9333,41,Paraná,PR,BRA,272.93241403597403
4115705,Arranjo Populacional de Matinhos - Pontal do Paraná/PR,64234.0,318.30899999999997,-25.8237,-48.549,41,Paraná,PR,BRA,201.79762432102143
4117107,Arranjo Populacional de Nova Londrina - Marilena/PR,20281.0,501.752,-22.7639,-52.9868,41,Paraná,PR,BRA,40.420367033913166
4118105,Arranjo Populacional de Paranacity/PR,16115.0,607.7339999999999,-22.9297,-52.1549,41,Paraná,PR,BRA,26.51653519467399
4118402,Arranjo Populacional de Paranavaí/PR,91014.0,1333.538,-23.0816,-52.4617,41,Paraná,PR,BRA,68.25002362137411
4118501,Arranjo Populacional de Pato Branco/PR,91658.0,847.3050000000001,-26.2292,-52.6706,41,Paraná,PR,BRA,108.1759224836393
4119905,Arranjo Populacional de Ponta Grossa/PR,383063.0,2704.412,-25.0916,-50.1668,41,Paraná,PR,BRA,141.64372884013235
4124400,Arranjo Populacional Internacional de Santo Antônio do Sudoeste/Brasil,25389.0,551.7909999999999,-26.0737,-53.7251,41,Paraná,PR,BRA,46.01198642239544
4126009,Arranjo Populacional de São Sebastião da Amoreira/PR,12289.0,357.45799999999997,-23.4656,-50.7625,41,Paraná,PR,BRA,34.3788640903267
4127700,Arranjo Populacional de Toledo/PR,150637.0,1491.091,-24.7246,-53.7412,41,Paraná,PR,BRA,101.02468595142751
4128104,Arranjo Populacional de Umuarama/PR,119009.0,1720.761,-23.7656,-53.3201,41,Paraná,PR,BRA,69.16067949006283
4128203,Arranjo Populacional de União da Vitória/PR - Porto União/SC,93983.0,1568.777,-26.2273,-51.0873,41,Paraná,PR,BRA,59.90845097805488
4201406,Arranjo Populacional de Araranguá/SC,85334.0,461.607,-28.9356,-49.4918,42,Santa Catarina,SC,BRA,184.8628811954758
4202404,Arranjo Populacional de Blumenau/SC,525220.0,1589.058,-26.9155,-49.0709,42,Santa Catarina,SC,BRA,330.52286323092045
4202909,Arranjo Populacional de Brusque/SC,170915.0,753.104,-27.0977,-48.9107,42,Santa Catarina,SC,BRA,226.94740699823663
4203808,Arranjo Populacional de Canoinhas/SC,74013.0,1584.5320000000002,-26.1766,-50.395,42,Santa Catarina,SC,BRA,46.709690937134745
4203907,Arranjo Populacional de Capinzal/SC,33901.0,647.779,-27.3473,-51.6057,42,Santa Catarina,SC,BRA,52.3342065735382
4204202,Arranjo Populacional de Chapecó/SC,236864.0,914.598,-27.1004,-52.6152,42,Santa Catarina,SC,BRA,258.9815416171914
4204608,Arranjo Populacional de Criciúma/SC,398116.0,2031.164,-28.6723,-49.3729,42,Santa Catarina,SC,BRA,196.00386773298465
4205001,Arranjo Populacional Internacional de Dionísio Cerqueira-Barracão/Brasil - Bernardo de Irigoyen/Argentina,25939.0,550.245,-26.2648,-53.6351,42,Santa Catarina,SC,BRA,47.14081908967823
4205407,Arranjo Populacional de Florianópolis/SC,1087071.0,3204.1820000000002,-27.5945,-48.5477,42,Santa Catarina,SC,BRA,339.26630884263125
4207304,Arranjo Populacional de Imbituba/SC,69781.0,296.35,-28.2284,-48.6659,42,Santa Catarina,SC,BRA,235.4681963894044
4208203,Arranjo Populacional de Itajaí - Balneário Camboriú/SC,637703.0,952.428,-26.9101,-48.6705,42,Santa Catarina,SC,BRA,669.5550739793454
4208302,Arranjo Populacional de Itapema/SC,112678.0,187.026,-27.0861,-48.616,42,Santa Catarina,SC,BRA,602.472383518869
4208401,Arranjo Populacional de Itapiranga/SC,20405.0,344.58299999999997,-27.1659,-53.7166,42,Santa Catarina,SC,BRA,59.21650226505661
4208906,Arranjo Populacional de Jaraguá do Sul/SC,270241.0,1369.406,-26.4851,-49.0713,42,Santa Catarina,SC,BRA,197.34176716036004
4209003,Arranjo Populacional de Joaçaba - Herval d´Oeste/SC,59187.0,575.317,-27.1721,-51.5108,42,Santa Catarina,SC,BRA,102.87719639781199
4209102,Arranjo Populacional de Joinville/SC,645598.0,1514.6399999999999,-26.3045,-48.8487,42,Santa Catarina,SC,BRA,426.23857814398144
4210100,Arranjo Populacional de Mafra/SC - Rio Negro/PR,91470.0,2008.2220000000002,-26.1159,-49.8086,42,Santa Catarina,SC,BRA,45.54775318664968
4211751,Arranjo Populacional de Otacílio Costa/SC,21874.0,1136.35,-27.4789,-50.1231,42,Santa Catarina,SC,BRA,19.24935099221191
4213104,Arranjo Populacional de Piratuba - Ipira/SC,8004.0,301.73900000000003,-27.4242,-51.7668,42,Santa Catarina,SC,BRA,26.5262362505344
4213807,Arranjo Populacional de Praia Grande/SC,10270.0,441.01300000000003,-29.1918,-49.9525,42,Santa Catarina,SC,BRA,23.287295385850303
4214805,Arranjo Populacional de Rio do Sul/SC,90998.0,588.177,-27.2156,-49.643,42,Santa Catarina,SC,BRA,154.7119319524565
4215802,Arranjo Populacional de São Bento do Sul - Rio Negrinho/SC,129001.0,1403.192,-26.2495,-49.3831,42,Santa Catarina,SC,BRA,91.93396199522232
4216008,Arranjo Populacional de São Carlos - Águas de Chapecó/SC,18000.0,301.631,-27.0798,-53.0037,42,Santa Catarina,SC,BRA,59.67556385119567
4217709,Arranjo Populacional de Sombrio/SC,42621.0,290.291,-29.108,-49.6328,42,Santa Catarina,SC,BRA,146.8216375981343
4218707,Arranjo Populacional de Tubarão - Laguna/SC,190696.0,853.685,-28.4713,-49.0144,42,Santa Catarina,SC,BRA,223.3798180827823
4300802,Arranjo Populacional de Antônio Prado/RS,19777.0,947.4929999999999,-28.8565,-51.2883,43,Rio Grande do Sul,RS,BRA,20.872977425690745
4301602,Arranjo Populacional de Bagé/RS,143100.0,7397.935,-31.3297,-54.0999,43,Rio Grande do Sul,RS,BRA,19.34323564616342
4301875,Arranjo Populacional Internacional de Bella Unión/Uruguai - Monte Caseros/Argentina,4238.0,1055.937,-30.2029,-57.5497,43,Rio Grande do Sul,RS,BRA,4.013497017340997
4302105,Arranjo Populacional de Bento Gonçalves/RS,192028.0,741.5409999999999,-29.1662,-51.5165,43,Rio Grande do Sul,RS,BRA,258.9580346872257
4304408,Arranjo Populacional de Canela - Gramado/RS,82821.0,492.343,-29.356,-50.8119,43,Rio Grande do Sul,RS,BRA,168.2180918587245
4304630,Arranjo Populacional de Capão da Canoa/RS,83458.0,301.443,-29.7642,-50.0282,43,Rio Grande do Sul,RS,BRA,276.86162889833236
4305108,Arranjo Populacional de Caxias do Sul/RS,603520.0,2058.765,-29.1629,-51.1792,43,Rio Grande do Sul,RS,BRA,293.14661945389594
4305207,Arranjo Populacional de Cerro Largo/RS,16977.0,270.955,-28.1463,-54.7428,43,Rio Grande do Sul,RS,BRA,62.65616061707664
4305355,Arranjo Populacional de Charqueadas - Triunfo - São Jerônimo/RS,96433.0,1970.583,-29.9625,-51.6289,43,Rio Grande do Sul,RS,BRA,48.936279263547895
4305439,Arranjo Populacional Internacional Chuy/Uruguai - Chuí/Brasil,6832.0,202.387,-33.6866,-53.4594,43,Rio Grande do Sul,RS,BRA,33.75710890521624
4305454,Arranjo Populacional de Cidreira - Balneário Pinhal/RS,31542.0,345.806,-30.1604,-50.2337,43,Rio Grande do Sul,RS,BRA,91.21299225577347
4308656,Arranjo Populacional Internacional de Garruchos/Brasil,2851.0,803.737,-28.1944,-55.6383,43,Rio Grande do Sul,RS,BRA,3.5471802343303844
4308904,Arranjo Populacional de Getúlio Vargas/RS,22082.0,387.223,-27.8911,-52.2294,43,Rio Grande do Sul,RS,BRA,57.026571252224166
4310603,Arranjo Populacional Internacional de Itaqui/Brasil,37363.0,3406.606,-29.1311,-56.5515,43,Rio Grande do Sul,RS,BRA,10.967807841587785
4311007,Arranjo Populacional Internacional de Jaguarão/Brasil - Rio Branco/Uruguai,26327.0,2051.845,-32.5604,-53.377,43,Rio Grande do Sul,RS,BRA,12.830891222290184
4311304,Arranjo Populacional de Lagoa Vermelha/RS,29379.0,1787.0770000000002,-28.2093,-51.5248,43,Rio Grande do Sul,RS,BRA,16.4396945403024
4311403,Arranjo Populacional de Lajeado/RS,180524.0,955.454,-29.4591,-51.9644,43,Rio Grande do Sul,RS,BRA,188.9405455417006
4314209,Arranjo Populacional de Pedro Osório - Cerrito/RS,13688.0,1055.456,-31.8642,-52.8184,43,Rio Grande do Sul,RS,BRA,12.968802110177972
4314407,Arranjo Populacional de Pelotas/RS,372254.0,2518.025,-31.7649,-52.3371,43,Rio Grande do Sul,RS,BRA,147.83570457004993
4314902,Arranjo Populacional de Porto Alegre/RS,4014049.0,5798.121,-30.0318,-51.2065,43,Rio Grande do Sul,RS,BRA,692.3016956700283
4315057,Arranjo Populacional Internacional de Porto Mauá/Brasil - Alba Posse/Argentina,2332.0,105.811,-27.5796,-54.6657,43,Rio Grande do Sul,RS,BRA,22.039296481462227
4315073,Arranjo Populacional Internacional de Porto Vera Cruz/Brasil - Panambí/Argentina,1258.0,114.284,-27.7405,-54.8994,43,Rio Grande do Sul,RS,BRA,11.007665114976724
4315107,Arranjo Populacional Internacional de Porto Xavier/Brasil - San Javier/Argentina,10144.0,281.497,-27.9082,-55.1379,43,Rio Grande do Sul,RS,BRA,36.03590802033414
4315305,Arranjo Populacional Internacional de Artigas/Uruguai - Quaraí/Brasil,22531.0,3139.995,-30.384,-56.4483,43,Rio Grande do Sul,RS,BRA,7.175489132944479
4316501,Arranjo Populacional de Salvador do Sul/RS,11856.0,134.108,-29.4386,-51.5077,43,Rio Grande do Sul,RS,BRA,88.40635905389685
4316808,Arranjo Populacional de Santa Cruz do Sul/RS,159596.0,1043.519,-29.722,-52.4343,43,Rio Grande do Sul,RS,BRA,152.9401956265291
4316907,Arranjo Populacional de Santa Maria/RS,290732.0,1952.995,-29.6868,-53.8149,43,Rio Grande do Sul,RS,BRA,148.8646924339284
4317103,Arranjo Populacional Internacional de Sant'Ana do Livramento/Brasil - Rivera/Uruguai,75647.0,6946.407,-30.8773,-55.5392,43,Rio Grande do Sul,RS,BRA,10.89009037333977
4317509,Arranjo Populacional de Santo Ângelo/RS,85894.0,1232.326,-28.3001,-54.2668,43,Rio Grande do Sul,RS,BRA,69.70071231151498
4318002,Arranjo Populacional Internacional de São Borja/Brasil,59768.0,3616.69,-28.6578,-56.0036,43,Rio Grande do Sul,RS,BRA,16.525607668890615
4318309,Arranjo Populacional de São Gabriel/RS,64780.0,6008.759,-30.3337,-54.3217,43,Rio Grande do Sul,RS,BRA,10.78092830815814
4321204,Arranjo Populacional de Taquara - Parobé - Igrejinha/RS,183861.0,864.867,-29.6505,-50.7753,43,Rio Grande do Sul,RS,BRA,212.58875642150758
4321329,Arranjo Populacional de Taquaruçu do Sul - Vista Alegre/RS,5807.0,154.547,-27.4005,-53.4702,43,Rio Grande do Sul,RS,BRA,37.574330139051554
4321451,Arranjo Populacional de Teutônia/RS,45862.0,413.323,-29.4482,-51.8044,43,Rio Grande do Sul,RS,BRA,110.95922559354307
4321501,Arranjo Populacional de Torres/RS,48650.0,254.262,-29.3334,-49.7333,43,Rio Grande do Sul,RS,BRA,191.33806860639814
4321600,Arranjo Populacional de Tramandaí - Osório/RS,124043.0,846.5219999999999,-29.9841,-50.1322,43,Rio Grande do Sul,RS,BRA,146.53251776090877
4322400,Arranjo Populacional Internacional de Uruguaiana/Brasil,126766.0,5702.098,-29.7614,-57.0853,43,Rio Grande do Sul,RS,BRA,22.23146638307514
4322608,Arranjo Populacional de Venâncio Aires/RS,77000.0,819.387,-29.6143,-52.1932,43,Rio Grande do Sul,RS,BRA,93.97268933971372
4322806,Arranjo Populacional de Veranópolis/RS,30220.0,397.116,-28.9312,-51.5516,43,Rio Grande do Sul,RS,BRA,76.09867142094501
5001102,Arranjo Populacional de Aquidauana - Anastácio/MS,73520.0,20000.198,-20.4666,-55.7868,50,Mato Grosso do Sul,MS,BRA,3.675963607960281
5002100,Arranjo Populacional Internacional de Bela Vista/Brasil,24842.0,4899.44,-22.1073,-56.5263,50,Mato Grosso do Sul,MS,BRA,5.070375389840472
5003157,Arranjo Populacional Internacional de Capitán Bado/Paraguai - Coronel Sapucaia/Brasil,15449.0,1023.727,-23.2724,-55.5278,50,Mato Grosso do Sul,MS,BRA,15.09093732997176
5003207,Arranjo Populacional Internacional de Corumbá/Brasil,136709.0,64792.617999999995,-19.0077,-57.651,50,Mato Grosso do Sul,MS,BRA,2.109947154782355
5005004,Arranjo Populacional de Jardim/MS,36129.0,3351.5589999999997,-21.4799,-56.1489,50,Mato Grosso do Sul,MS,BRA,10.779759508933008
5006358,Arranjo Populacional Internacional de Paranhos/Brasil - Ypejhú/Paraguai,14576.0,1307.092,-23.8911,-55.429,50,Mato Grosso do Sul,MS,BRA,11.151472122849807
5006606,Arranjo Populacional Internacional de Pedro Juan Caballero/Paraguai - Ponta Porã/Brasil,95320.0,5359.354,-22.5296,-55.7203,50,Mato Grosso do Sul,MS,BRA,17.78572566768308
5100300,Arranjo Populacional de Alto Araguaia/MT,28824.0,6759.505,-17.3153,-53.2181,51,Mato Grosso,MT,BRA,4.264217572144706
5101308,Arranjo Populacional de Arenápolis - Nortelândia/MT,15257.0,1754.091,-14.4472,-56.8437,51,Mato Grosso,MT,BRA,8.697952386734782
5101803,Arranjo Populacional de Barra do Garças/MT,89084.0,12521.46,-15.8804,-52.264,51,Mato Grosso,MT,BRA,7.11450581641438
5103403,Arranjo Populacional de Cuiabá/MT,913997.0,5801.459999999999,-15.601,-56.0974,51,Mato Grosso,MT,BRA,157.54603151620458
5104807,Arranjo Populacional de Jaciara/MT,32519.0,2023.83,-15.9548,-54.9733,51,Mato Grosso,MT,BRA,16.068049193855217
5108204,Arranjo Populacional de Torixoréu/MT - Baliza/GO,8905.0,4178.556,-16.2006,-52.5571,51,Mato Grosso,MT,BRA,2.131118979858114
5200803,Arranjo Populacional de Alvorada do Norte - Simolândia/GO,15644.0,1615.158,-14.4797,-46.491,52,Goiás,GO,BRA,9.685739723296422
5204508,Arranjo Populacional de Caldas Novas/GO,99911.0,1853.1779999999999,-17.7441,-48.6246,52,Goiás,GO,BRA,53.913331584985364
5205109,Arranjo Populacional de Catalão/GO,128466.0,5091.639,-18.1656,-47.944,52,Goiás,GO,BRA,25.230775394720638
5205406,Arranjo Populacional de Ceres - Rialma/GO,33368.0,481.361,-15.3061,-49.6,52,Goiás,GO,BRA,69.32011525653304
5208608,Arranjo Populacional de Goianésia/GO,87055.0,3598.035,-15.3118,-49.1162,52,Goiás,GO,BRA,24.195150964345817
5208707,Arranjo Populacional de Goiânia/GO,2579327.0,4971.549,-16.6864,-49.2643,52,Goiás,GO,BRA,518.8175757696445
5209952,Arranjo Populacional de Indiara/GO,21963.0,1818.5059999999999,-17.1387,-49.9862,52,Goiás,GO,BRA,12.077496582359366
5211503,Arranjo Populacional de Itumbiara/GO,113837.0,2741.368,-18.4093,-49.2158,52,Goiás,GO,BRA,41.52561786670013
5213004,Arranjo Populacional de Maurilândia/GO,23994.0,1931.8799999999999,-17.9719,-50.3388,52,Goiás,GO,BRA,12.42002608857693
5217401,Arranjo Populacional de Pires do Rio/GO,37347.0,1761.271,-17.3019,-48.2768,52,Goiás,GO,BRA,21.204573288267394
5300108,Arranjo Populacional de Brasília/DF,4104786.0,17203.952,-15.7795,-47.9297,53,Distrito Federal,DF,BRA,238.59552735325
3100104,Abadia dos Dourados,7022.0,880.461,-18.4831,-47.3916,31,Minas Gerais,MG,BRA,7.975367449551996
5200100,Abadiânia,20873.0,1044.555,-16.197,-48.7057,52,Goiás,GO,BRA,19.98267204694822
3100203,Abaeté,23263.0,1817.067,-19.1551,-45.4444,31,Minas Gerais,MG,BRA,12.802499852784734
1500107,Abaetetuba,160439.0,1610.654,-1.72183,-48.8788,15,Pará,PA,BRA,99.61108965674813
2300101,Abaiara,11965.0,180.833,-7.34588,-39.0416,23,Ceará,CE,BRA,66.16602058252641
2900108,Abaíra,8681.0,538.677,-13.2488,-41.6619,29,Bahia,BA,BRA,16.11540867718503
2900207,Abaré,20594.0,1604.923,-8.72073,-39.1162,29,Bahia,BA,BRA,12.831768253056378
4100103,Abatiá,7360.0,228.717,-23.3049,-50.3133,41,Paraná,PR,BRA,32.17950567732176
4200051,Abdon Batista,2534.0,237.517,-27.6126,-51.0233,42,Santa Catarina,SC,BRA,10.668710029176859
1500131,Abel Figueiredo,7536.0,614.131,-4.95333,-48.3933,15,Pará,PA,BRA,12.270997555896056
4200101,Abelardo Luz,18015.0,953.992,-26.5716,-52.3229,42,Santa Catarina,SC,BRA,18.883806153510722
3100302,Abre Campo,13434.0,470.551,-20.2996,-42.4743,31,Minas Gerais,MG,BRA,28.549508979898036
1700251,Abreulândia,2609.0,1906.295,-9.62101,-49.1518,17,Tocantins,TO,BRA,1.3686234292174086
3100401,Acaiaca,3995.0,101.886,-20.359,-43.1439,31,Minas Gerais,MG,BRA,39.210490155664175
2100055,Açailândia,113783.0,5805.159,-4.94714,-47.5004,21,Maranhão,MA,BRA,19.60032447001021
2900306,Acajutiba,15214.0,181.475,-11.6575,-38.0197,29,Bahia,BA,BRA,83.83523901363824
1500206,Acará,55744.0,4344.384,-1.95383,-48.1985,15,Pará,PA,BRA,12.831278266377925
2300200,Acaraú,63556.0,842.471,-2.88769,-40.1183,23,Ceará,CE,BRA,75.43998547131
2400109,Acari,11106.0,608.466,-6.4282,-36.6347,24,Rio Grande do Norte,RN,BRA,18.252457820157577
2200053,Acauã,7119.0,1280.838,-8.21954,-41.0831,22,Piauí,PI,BRA,5.558079944536312
2300309,Acopiara,54687.0,2254.279,-6.08911,-39.448,23,Ceará,CE,BRA,24.259197730183352
5100102,Acorizal,5309.0,850.763,-15.194,-56.3632,51,Mato Grosso,MT,BRA,6.240280783249859
1200013,Acrelândia,15721.0,1811.613,-9.82581,-66.8972,12,Acre,AC,BRA,8.677901958089283
5200134,Acreúna,22710.0,1566.742,-17.396,-50.3749,52,Goiás,GO,BRA,14.495047684941108
2400208,Açu,58743.0,1303.442,-5.58362,-36.914,24,Rio Grande do Norte,RN,BRA,45.06759794451921
3100500,Açucena,9270.0,815.422,-19.0671,-42.5419,31,Minas Gerais,MG,BRA,11.36834669655712
5200159,Adelândia,2515.0,115.385,-16.4127,-50.1657,52,Goiás,GO,BRA,21.796594011353296
3500204,Adolfo,3545.0,211.055,-21.2325,-49.6451,35,São Paulo,SP,BRA,16.796569614555448
2900355,Adustina,17209.0,629.099,-10.5437,-38.1113,29,Bahia,BA,BRA,27.354995000786836
2600104,Afogados da Ingazeira,37546.0,377.696,-7.74312,-37.631,26,Pernambuco,PE,BRA,99.40798949419639
2400307,Afonso Bezerra,11024.0,576.179,-5.49229,-36.5075,24,Rio Grande do Norte,RN,BRA,19.132943061097333
3200102,Afonso Cláudio,30326.0,941.188,-20.0778,-41.1261,32,Espirito Santo,ES,BRA,32.22098029299141
2100105,Afonso Cunha,6631.0,371.338,-4.13631,-43.3275,21,Maranhão,MA,BRA,17.857046679844238
2600203,Afrânio,19981.0,1490.594,-8.51136,-41.0095,26,Pernambuco,PE,BRA,13.40472321772394
1500305,Afuá,39910.0,8338.438,-0.154874,-50.3861,15,Pará,PA,BRA,4.786268123598209
2600302,Agrestina,25240.0,200.369,-8.45966,-35.9447,26,Pernambuco,PE,BRA,125.96758979682485
2200103,Agricolândia,5123.0,112.392,-5.79676,-42.6664,22,Piauí,PI,BRA,45.581536052388074
4200200,Agrolândia,11160.0,206.815,-27.4087,-49.822,42,Santa Catarina,SC,BRA,53.96126973382008
1500347,Água Azul do Norte,27797.0,7113.955,-6.79053,-50.4791,15,Pará,PA,BRA,3.9073904740752505
3100609,Água Boa,13319.0,1320.344,-17.9914,-42.3806,31,Minas Gerais,MG,BRA,10.087522645613568
5100201,Água Boa,26679.0,7549.308,-14.051,-52.1601,51,Mato Grosso,MT,BRA,3.5339662920098105
2200202,Água Branca,17525.0,96.843,-5.88856,-42.637,22,Piauí,PI,BRA,180.96300197226438
2500106,Água Branca,10375.0,241.662,-7.51144,-37.6357,25,Paraíba,PB,BRA,42.931863511847126
2700102,Água Branca,20263.0,468.229,-9.262,-37.938,27,Alagoas,AL,BRA,43.275832979161905
5000203,Água Clara,16025.0,7781.558,-20.4452,-52.879,50,Mato Grosso do Sul,MS,BRA,2.059356236887266
3100708,Água Comprida,1986.0,492.167,-20.0576,-48.1069,31,Minas Gerais,MG,BRA,4.035215688983618
4200408,Água Doce,7160.0,1319.137,-26.9985,-51.5528,42,Santa Catarina,SC,BRA,5.4277910482383565
2100154,Água Doce do Maranhão,12731.0,442.292,-2.84048,-42.1189,21,Maranhão,MA,BRA,28.78415164642363
3200169,Água Doce do Norte,10801.0,473.729,-18.5482,-40.9854,32,Espirito Santo,ES,BRA,22.799955248675932
2900405,Água Fria,17096.0,742.775,-11.8618,-38.7639,29,Bahia,BA,BRA,23.01639123556932
5200175,Água Fria de Goiás,5843.0,2023.636,-14.9778,-47.7823,52,Goiás,GO,BRA,2.887376978863788
5200209,Água Limpa,1809.0,458.836,-18.0771,-48.7603,52,Goiás,GO,BRA,3.942585150249762
2400406,Água Nova,3293.0,50.684,-6.20351,-38.2941,24,Rio Grande do Norte,RN,BRA,64.97119406518823
2600401,Água Preta,37386.0,533.332,-8.70609,-35.5263,26,Pernambuco,PE,BRA,70.09892524731312
4300059,Água Santa,3738.0,291.503,-28.1672,-52.031,43,Rio Grande do Sul,RS,BRA,12.823195644641737
3500303,Aguaí,36981.0,474.554,-22.0572,-46.9735,35,São Paulo,SP,BRA,77.92790704535206
3100807,Aguanil,4557.0,232.091,-20.9439,-45.3915,31,Minas Gerais,MG,BRA,19.634539900297728
2600500,Águas Belas,43923.0,885.988,-9.11125,-37.1226,26,Pernambuco,PE,BRA,49.57516354623313
3500550,Águas de Santa Bárbara,6142.0,404.463,-22.8812,-49.2421,35,São Paulo,SP,BRA,15.185567035798082
3100906,Águas Formosas,19285.0,820.079,-17.0802,-40.9384,31,Minas Gerais,MG,BRA,23.516027114460925
4200556,Águas Frias,2341.0,76.631,-26.8794,-52.8568,42,Santa Catarina,SC,BRA,30.54899453223891
3101003,Águas Vermelhas,13656.0,1256.607,-15.7431,-41.4571,31,Minas Gerais,MG,BRA,10.86735948470763
4300109,Agudo,16344.0,534.624,-29.6447,-53.2515,43,Rio Grande do Sul,RS,BRA,30.57101813611061
3500709,Agudos,37582.0,966.708,-22.4694,-48.9863,35,São Paulo,SP,BRA,38.87626873885392
4100301,Agudos do Sul,9567.0,192.261,-25.9899,-49.3343,41,Paraná,PR,BRA,49.760481844991965
3200136,Águia Branca,9621.0,454.448,-18.9846,-40.7437,32,Espirito Santo,ES,BRA,21.170739006442982
2500205,Aguiar,5622.0,351.607,-7.0918,-38.1681,25,Paraíba,PB,BRA,15.989442758534386
3101102,Aimorés,25116.0,1348.913,-19.5007,-41.0746,31,Minas Gerais,MG,BRA,18.619436538902065
2900603,Aiquara,4387.0,167.877,-14.1269,-39.8937,29,Bahia,BA,BRA,26.13222776199241
2300408,Aiuaba,17584.0,2438.563,-6.57122,-40.1178,23,Ceará,CE,BRA,7.2108040678055065
3101201,Aiuruoca,5949.0,649.68,-21.9736,-44.6042,31,Minas Gerais,MG,BRA,9.156815663095678
4300208,Ajuricaba,6951.0,322.674,-28.2342,-53.7757,43,Rio Grande do Sul,RS,BRA,21.5418657840421
3101300,Alagoa,2657.0,161.356,-22.171,-44.6413,31,Minas Gerais,MG,BRA,16.466694761892956
2500304,Alagoa Grande,28384.0,322.071,-7.03943,-35.6206,25,Paraíba,PB,BRA,88.12963601193525
2500403,Alagoa Nova,20992.0,128.23,-7.05377,-35.7591,25,Paraíba,PB,BRA,163.70584106683305
2500502,Alagoinha,14629.0,111.361,-6.94657,-35.5332,25,Paraíba,PB,BRA,131.36555885812805
2600609,Alagoinha,14798.0,216.452,-8.4665,-36.7788,26,Pernambuco,PE,BRA,68.36619666253951
2200251,Alagoinha do Piauí,7678.0,535.89,-7.00039,-40.9282,22,Piauí,PI,BRA,14.327567224616992
2900702,Alagoinhas,153023.0,707.835,-12.1335,-38.4208,29,Bahia,BA,BRA,216.1845627865251
3101409,Albertina,3015.0,58.01,-22.2018,-46.6139,31,Minas Gerais,MG,BRA,51.97379762109981
2100204,Alcântara,22126.0,1167.964,-2.39574,-44.4062,21,Maranhão,MA,BRA,18.944077043470518
2300507,Alcântaras,11846.0,135.76,-3.58537,-40.5479,23,Ceará,CE,BRA,87.2569239835003
2500536,Alcantil,5527.0,309.896,-7.73668,-36.0511,25,Paraíba,PB,BRA,17.83501561814286
5000252,Alcinópolis,5489.0,4397.518,-18.3255,-53.7042,50,Mato Grosso do Sul,MS,BRA,1.2482041005858304
2900801,Alcobaça,22509.0,1477.929,-17.5195,-39.2036,29,Bahia,BA,BRA,15.230095627056508
2100303,Aldeias Altas,26979.0,1942.121,-4.62621,-43.4689,21,Maranhão,MA,BRA,13.891513453590171
4300307,Alecrim,5710.0,316.394,-27.6579,-54.7649,43,Rio Grande do Sul,RS,BRA,18.047118466216173
3200201,Alegre,29869.0,756.86,-20.758,-41.5382,32,Espirito Santo,ES,BRA,39.46436593293343
4300406,Alegrete,72493.0,7800.428,-29.7902,-55.7949,43,Rio Grande do Sul,RS,BRA,9.293464409901611
2200277,Alegrete do Piauí,4921.0,243.732,-7.24196,-40.8566,22,Piauí,PI,BRA,20.190208917991892
4300455,Alegria,3287.0,172.794,-27.8345,-54.0557,43,Rio Grande do Sul,RS,BRA,19.02265124946468
1500404,Alenquer,57390.0,23645.452,-1.94623,-54.7384,15,Pará,PA,BRA,2.427105220910981
2400505,Alexandria,13529.0,381.205,-6.40533,-38.0142,24,Rio Grande do Norte,RN,BRA,35.49009063364856
5200308,Alexânia,28360.0,846.876,-16.0834,-48.5076,52,Goiás,GO,BRA,33.48778333545879
3101607,Alfenas,80973.0,850.446,-21.4256,-45.9477,31,Minas Gerais,MG,BRA,95.21239443774208
3200300,Alfredo Chaves,14670.0,615.677,-20.6396,-40.7543,32,Espirito Santo,ES,BRA,23.827428992799796
4200705,Alfredo Wagner,10136.0,733.489,-27.7001,-49.3273,42,Santa Catarina,SC,BRA,13.818884809451811
2500577,Algodão de Jandaíra,2588.0,222.74,-6.89292,-36.0129,25,Paraíba,PB,BRA,11.618927897997665
2500601,Alhandra,19865.0,183.974,-7.42977,-34.9057,25,Paraíba,PB,BRA,107.97721417156772
2600708,Aliança,38408.0,272.773,-7.60398,-35.2227,26,Pernambuco,PE,BRA,140.8057249067906
1700350,Aliança do Tocantins,5303.0,1580.999,-11.3056,-48.9361,17,Tocantins,TO,BRA,3.354208320182366
2900900,Almadina,5273.0,245.236,-14.7089,-39.6415,29,Bahia,BA,BRA,21.501737102219902
1700400,Almas,6905.0,4007.152,-11.5706,-47.1792,17,Tocantins,TO,BRA,1.723168973874712
3101706,Almenara,42380.0,2294.426,-16.1785,-40.6942,31,Minas Gerais,MG,BRA,18.470850661559798
2400604,Almino Afonso,4685.0,128.038,-6.1475,-37.7636,24,Rio Grande do Norte,RN,BRA,36.59069963604554
4300471,Almirante Tamandaré do Sul,1935.0,265.042,-28.1149,-52.9142,43,Rio Grande do Sul,RS,BRA,7.300729695670875
5200506,Aloândia,1976.0,102.094,-17.7292,-49.4769,52,Goiás,GO,BRA,19.354712323936766
3101805,Alpercata,7448.0,166.972,-18.974,-41.97,31,Minas Gerais,MG,BRA,44.606281292671824
4300505,Alpestre,5885.0,325.979,-27.2502,-53.0341,43,Rio Grande do Sul,RS,BRA,18.053310182557773
3101904,Alpinópolis,20059.0,460.685,-20.8631,-46.3878,31,Minas Gerais,MG,BRA,43.541682494546166
5100250,Alta Floresta,52105.0,8955.41,-9.86674,-56.0867,51,Mato Grosso,MT,BRA,5.818270743606379
1100015,Alta Floresta D'Oeste,22516.0,7067.127,-11.9283,-61.9953,11,Rondônia,RO,BRA,3.186018873015866
3500907,Altair,4211.0,313.007,-20.5242,-49.0571,35,São Paulo,SP,BRA,13.453373247243672
1500602,Altamira,117320.0,159533.306,-3.20407,-52.21,15,Pará,PA,BRA,0.7353950277943841
2100402,Altamira do Maranhão,8250.0,524.374,-4.16598,-45.4706,21,Maranhão,MA,BRA,15.733045498060545
4100459,Altamira do Paraná,1429.0,386.945,-24.7983,-52.7128,41,Paraná,PR,BRA,3.6930313093592115
2300606,Altaneira,7712.0,72.675,-6.99837,-39.7356,23,Ceará,CE,BRA,106.11627106983144
3102001,Alterosa,14566.0,362.01,-21.2488,-46.1387,31,Minas Gerais,MG,BRA,40.236457556421094
2600807,Altinho,22996.0,450.178,-8.48482,-36.0644,26,Pernambuco,PE,BRA,51.0820164468277
3501004,Altinópolis,16221.0,928.956,-21.0214,-47.3712,35,São Paulo,SP,BRA,17.461537467867153
3501103,Alto Alegre,4078.0,318.574,-21.5811,-50.168,35,São Paulo,SP,BRA,12.800793536195672
1400050,Alto Alegre,15249.0,25454.297,2.98858,-61.3072,14,Roraima,RR,BRA,0.5990737045301232
4300554,Alto Alegre,1590.0,115.335,-28.7769,-52.9893,43,Rio Grande do Sul,RS,BRA,13.78592794901808
2100436,Alto Alegre do Maranhão,28066.0,392.75,-4.213,-44.446,21,Maranhão,MA,BRA,71.46021642266072
2100477,Alto Alegre do Pindaré,31967.0,1875.901,-3.66689,-45.8421,21,Maranhão,MA,BRA,17.04087795677917
1100379,Alto Alegre dos Parecis,13268.0,3958.273,-12.132,-61.835,11,Rondônia,RO,BRA,3.3519668805057155
4200754,Alto Bela Vista,1915.0,103.433,-27.4333,-51.9044,42,Santa Catarina,SC,BRA,18.51440062649251
5100359,Alto Boa Vista,7092.0,2248.414,-11.6732,-51.3883,51,Mato Grosso,MT,BRA,3.1542233770115287
3102050,Alto Caparaó,5938.0,103.69,-20.431,-41.8738,31,Minas Gerais,MG,BRA,57.26685311987656
2400703,Alto do Rodrigues,14923.0,191.334,-5.28186,-36.75,24,Rio Grande do Norte,RN,BRA,77.9945017613179
4300570,Alto Feliz,3043.0,78.846,-29.3919,-51.3123,43,Rio Grande do Sul,RS,BRA,38.59422164726175
5100409,Alto Garças,12323.0,3858.153,-16.9462,-53.5272,51,Mato Grosso,MT,BRA,3.194015374714274
5200555,Alto Horizonte,6796.0,500.342,-14.1978,-49.3378,52,Goiás,GO,BRA,13.582709426752102
3153509,Alto Jequitibá,8286.0,152.272,-20.4208,-41.967,31,Minas Gerais,MG,BRA,54.415782284333304
2200301,Alto Longá,14371.0,1743.331,-5.25634,-42.2096,22,Piauí,PI,BRA,8.243414474933331
5100508,Alto Paraguai,11587.0,1847.354,-14.5137,-56.4776,51,Mato Grosso,MT,BRA,6.272214204749063
4128625,Alto Paraíso,2630.0,967.772,-26.1146,-52.7469,41,Paraná,PR,BRA,2.7175822404450636
1100403,Alto Paraíso,22258.0,2651.822,-9.71429,-63.3188,11,Rondônia,RO,BRA,8.393474373468505
5200605,Alto Paraíso de Goiás,7751.0,2594.998,-14.1305,-47.51,52,Goiás,GO,BRA,2.986900182582029
4100608,Alto Paraná,14945.0,407.719,-23.1312,-52.3189,41,Paraná,PR,BRA,36.65514729507332
4100707,Alto Piquiri,9722.0,447.666,-24.0224,-53.44,41,Paraná,PR,BRA,21.717083718665254
3102100,Alto Rio Doce,10723.0,518.053,-21.0281,-43.4067,31,Minas Gerais,MG,BRA,20.698654384783023
3200359,Alto Rio Novo,7911.0,227.617,-19.0618,-41.0209,32,Espirito Santo,ES,BRA,34.75575198689026
2300705,Alto Santo,16077.0,1147.208,-5.50894,-38.2743,23,Ceará,CE,BRA,14.014023612108701
5100607,Alto Taquari,11413.0,1436.582,-17.8241,-53.2792,51,Mato Grosso,MT,BRA,7.94455172068145
4100509,Altônia,22293.0,661.56,-23.8759,-53.8958,41,Paraná,PR,BRA,33.69762379829494
2200400,Altos,40681.0,957.232,-5.03888,-42.4612,22,Piauí,PI,BRA,42.498579236799436
1300029,Alvarães,16396.0,5923.461,-3.22727,-64.8007,13,Amazonas,AM,BRA,2.7679763570655735
3102209,Alvarenga,3783.0,278.175,-19.4174,-41.7317,31,Minas Gerais,MG,BRA,13.599352925316797
3501400,Álvaro de Carvalho,5320.0,153.662,-22.0841,-49.719,35,São Paulo,SP,BRA,34.621441865913496
3501509,Alvinlândia,3251.0,84.879,-22.4435,-49.7623,35,São Paulo,SP,BRA,38.3015822523828
3102308,Alvinópolis,15135.0,599.443,-20.1098,-43.0535,31,Minas Gerais,MG,BRA,25.24843896750817
1700707,Alvorada,8381.0,1207.201,-12.4785,-49.1249,17,Tocantins,TO,BRA,6.942505846168119
1100346,Alvorada D'Oeste,13807.0,3029.189,-11.3463,-62.2847,11,Rondônia,RO,BRA,4.557985652265343
3102407,Alvorada de Minas,3605.0,374.008,-18.7334,-43.3638,31,Minas Gerais,MG,BRA,9.63883125494642
2200459,Alvorada do Gurguéia,5469.0,2131.506,-8.42418,-43.777,22,Piauí,PI,BRA,2.565791510790962
4100806,Alvorada do Sul,11598.0,424.25,-22.7813,-51.2297,41,Paraná,PR,BRA,27.33765468473777
1400027,Amajari,13561.0,28473.45,3.64571,-61.3692,14,Roraima,RR,BRA,0.47626824287186836
5000609,Amambai,40247.0,4193.742,-23.1058,-55.2253,50,Mato Grosso do Sul,MS,BRA,9.596918456118663
1600105,Amapá,9265.0,8454.847,2.05267,-50.7957,16,Amapá,AP,BRA,1.095821130766766
2100550,Amapá do Maranhão,7047.0,502.402,-1.67524,-46.0024,21,Maranhão,MA,BRA,14.02661613608226
4100905,Amaporã,6405.0,384.735,-23.0943,-52.7866,41,Paraná,PR,BRA,16.64782252719404
2600906,Amaraji,22910.0,234.956,-8.37691,-35.4501,26,Pernambuco,PE,BRA,97.50761844770936
4300638,Amaral Ferrador,7136.0,505.983,-30.8756,-52.2509,43,Rio Grande do Sul,RS,BRA,14.103240622708668
5200829,Amaralina,3875.0,1343.742,-13.9236,-49.2962,52,Goiás,GO,BRA,2.883738098533796
2100600,Amarante do Maranhão,42017.0,7439.615,-5.56913,-46.7473,21,Maranhão,MA,BRA,5.647738491844001
2901007,Amargosa,37631.0,431.655,-13.0215,-39.602,29,Bahia,BA,BRA,87.17841794951988
1300060,Amaturá,11934.0,4754.109,-3.37455,-68.2005,13,Amazonas,AM,BRA,2.5102495546484103
2901106,Amélia Rodrigues,24997.0,166.872,-12.3914,-38.7563,29,Bahia,BA,BRA,149.79744954216403
2901155,América Dourada,16086.0,822.373,-11.4429,-41.439,29,Bahia,BA,BRA,19.560467087319257
5200852,Americano do Brasil,6220.0,133.834,-16.2514,-49.9831,52,Goiás,GO,BRA,46.47548455549412
3501806,Américo de Campos,5993.0,252.876,-20.2985,-49.7359,35,São Paulo,SP,BRA,23.699362533415588
4300646,Ametista do Sul,7396.0,93.704,-27.3607,-53.183,43,Rio Grande do Sul,RS,BRA,78.92939468966107
2300754,Amontada,44195.0,1175.044,-3.36017,-39.8288,23,Ceará,CE,BRA,37.61135753214347
5200902,Amorinópolis,3011.0,406.93,-16.6151,-51.0919,52,Goiás,GO,BRA,7.399307006118988
2500734,Amparo,2264.0,122.094,-7.55502,-37.0628,25,Paraíba,PB,BRA,18.543089750520092
2800100,Amparo de São Francisco,2386.0,35.683,-10.1348,-36.935,28,Sergipe,SE,BRA,66.86657511980495
3102506,Amparo do Serra,4643.0,136.186,-20.5051,-42.8009,31,Minas Gerais,MG,BRA,34.0930785837017
4101002,Ampére,19466.0,298.349,-25.9168,-53.4686,41,Paraná,PR,BRA,65.24573569879571
2700201,Anadia,17507.0,186.134,-9.68489,-36.3078,27,Alagoas,AL,BRA,94.05589521527503
2901205,Anagé,21229.0,1899.683,-14.6151,-41.1356,29,Bahia,BA,BRA,11.17502235899358
4101051,Anahy,2774.0,102.895,-24.6449,-53.1332,41,Paraná,PR,BRA,26.959521842655136
1500701,Anajás,30091.0,6913.64,-0.996811,-49.9354,15,Pará,PA,BRA,4.352410597022697
2100709,Anajatuba,27170.0,940.489,-3.26269,-44.6126,21,Maranhão,MA,BRA,28.88922677458216
3502002,Analândia,5115.0,325.953,-22.1289,-47.6619,35,São Paulo,SP,BRA,15.69244645700454
1300086,Anamã,14292.0,2446.121,-3.56697,-61.3963,13,Amazonas,AM,BRA,5.842719963566807
1701002,Ananás,9435.0,1581.058,-6.36437,-48.0735,17,Tocantins,TO,BRA,5.967523013070994
5201108,Anápolis,396526.0,935.672,-16.3281,-48.953,52,Goiás,GO,BRA,423.78739558306756
1500859,Anapu,29312.0,11895.27,-3.46985,-51.2003,15,Pará,PA,BRA,2.464172734204436
2100808,Anapurus,16054.0,608.903,-3.67577,-43.1014,21,Maranhão,MA,BRA,26.36544737010657
5000807,Anaurilândia,9116.0,3415.657,-22.1852,-52.7191,50,Mato Grosso do Sul,MS,BRA,2.6688862494097036
4200804,Anchieta,5477.0,232.348,-26.5382,-53.3319,42,Santa Catarina,SC,BRA,23.572400020658666
3200409,Anchieta,30285.0,409.691,-20.7955,-40.6425,32,Espirito Santo,ES,BRA,73.92156527724553
2901304,Andaraí,13122.0,1590.316,-12.8049,-41.3297,29,Bahia,BA,BRA,8.251190329469111
4101101,Andirá,19823.0,235.944,-23.0533,-50.2304,41,Paraná,PR,BRA,84.01569864035534
2901353,Andorinha,14416.0,1362.386,-10.3482,-39.8391,29,Bahia,BA,BRA,10.58143580453704
3102605,Andradas,41704.0,469.396,-22.0695,-46.5724,31,Minas Gerais,MG,BRA,88.8460915730002
3502101,Andradina,57245.0,964.226,-20.8948,-51.3786,35,São Paulo,SP,BRA,59.36886165691446
4300661,André da Rocha,1351.0,331.227,-28.6283,-51.5797,43,Rio Grande do Sul,RS,BRA,4.078773771461868
3102803,Andrelândia,12189.0,1005.285,-21.7411,-44.3117,31,Minas Gerais,MG,BRA,12.12491979886301
3502200,Angatuba,25724.0,1027.288,-23.4917,-48.4139,35,São Paulo,SP,BRA,25.040689660543098
3102852,Angelândia,8594.0,185.211,-17.7279,-42.2641,31,Minas Gerais,MG,BRA,46.401131682243495
5000856,Angélica,11081.0,1283.627,-22.1527,-53.7708,50,Mato Grosso do Sul,MS,BRA,8.632570053450108
2601003,Angelim,11301.0,118.037,-8.88429,-36.2902,26,Pernambuco,PE,BRA,95.74116590560587
4200903,Angelina,4686.0,499.998,-27.5704,-48.9879,42,Santa Catarina,SC,BRA,9.372037488149953
2901403,Angical,13902.0,1530.05,-12.0063,-44.7003,29,Bahia,BA,BRA,9.085977582431948
1701051,Angico,3475.0,447.549,-6.39179,-47.8611,17,Tocantins,TO,BRA,7.764512936013711
2400802,Angicos,11695.0,741.582,-5.65792,-36.6094,24,Rio Grande do Norte,RN,BRA,15.77033962528756
3300100,Angra dos Reis,210171.0,813.42,-23.0011,-44.3196,33,Rio de Janeiro,RJ,BRA,258.37943497824006
2901502,Anguera,11369.0,187.84,-12.1462,-39.2462,29,Bahia,BA,BRA,60.52491482112436
4101150,Ângulo,2931.0,106.021,-23.1946,-51.9154,41,Paraná,PR,BRA,27.645466464191056
5201207,Anhanguera,1171.0,55.569,-18.3339,-48.2204,52,Goiás,GO,BRA,21.072900358113337
3502309,Anhembi,6911.0,736.557,-22.793,-48.1336,35,São Paulo,SP,BRA,9.382844776439569
5201306,Anicuns,22113.0,976.038,-16.4642,-49.9617,52,Goiás,GO,BRA,22.655880201385603
2200707,Anísio de Abreu,9994.0,337.877,-9.18564,-43.0494,22,Piauí,PI,BRA,29.57881122420289
4201000,Anita Garibaldi,6783.0,589.812,-27.6897,-51.1271,42,Santa Catarina,SC,BRA,11.500274663791174
4201109,Anitápolis,3223.0,540.636,-27.9012,-49.1316,42,Santa Catarina,SC,BRA,5.961497199594552
1300102,Anori,21937.0,6036.38,-3.74603,-61.6575,13,Amazonas,AM,BRA,3.634131714703183
4300703,Anta Gorda,5941.0,242.26,-28.9698,-52.0102,43,Rio Grande do Sul,RS,BRA,24.5232394947577
2901601,Antas,19659.0,319.745,-10.3856,-38.3401,29,Bahia,BA,BRA,61.48336956011822
4101200,Antonina,18919.0,882.317,-25.4386,-48.7191,41,Paraná,PR,BRA,21.442406754035115
2300804,Antonina do Norte,7402.0,259.706,-6.76919,-39.987,23,Ceará,CE,BRA,28.501459342487273
2200806,Antônio Almeida,3175.0,644.8,-7.21276,-44.1889,22,Piauí,PI,BRA,4.924007444168735
2901700,Antônio Cardoso,11670.0,293.53,-12.4335,-39.1176,29,Bahia,BA,BRA,39.757435355840975
3103009,Antônio Dias,9233.0,787.061,-19.6491,-42.8732,31,Minas Gerais,MG,BRA,11.730984002510606
2901809,Antônio Gonçalves,11955.0,345.284,-10.5767,-40.2785,29,Bahia,BA,BRA,34.62367210759838
5000906,Antônio João,9082.0,1142.895,-22.1927,-55.9517,50,Mato Grosso do Sul,MS,BRA,7.946486772625657
2400901,Antônio Martins,7162.0,244.897,-6.21367,-37.8834,24,Rio Grande do Norte,RN,BRA,29.24494787604585
4101309,Antônio Olinto,7421.0,469.62,-25.9804,-50.1972,41,Paraná,PR,BRA,15.80213789872663
3103108,Antônio Prado de Minas,1577.0,83.802,-21.0192,-42.1109,31,Minas Gerais,MG,BRA,18.818166630867996
2500775,Aparecida,8482.0,291.478,-6.78466,-38.0803,25,Paraíba,PB,BRA,29.09996637825153
3502606,Aparecida d'Oeste,4122.0,179.004,-20.4487,-50.8835,35,São Paulo,SP,BRA,23.027418381712142
5201454,Aparecida do Rio Doce,2474.0,603.254,-18.2941,-51.1516,52,Goiás,GO,BRA,4.101091745765465
1701101,Aparecida do Rio Negro,4901.0,1159.034,-9.94139,-47.9638,17,Tocantins,TO,BRA,4.2285213375966535
5001003,Aparecida do Taboado,26386.0,2751.485,-20.0873,-51.0961,50,Mato Grosso do Sul,MS,BRA,9.589730636365454
3200508,Apiacá,7542.0,193.984,-21.1523,-41.5693,32,Espirito Santo,ES,BRA,38.879495216100295
5100805,Apiacás,10431.0,20489.024,-9.53981,-57.4587,51,Mato Grosso,MT,BRA,0.5091018488728404
3502705,Apiaí,24081.0,974.322,-24.5108,-48.8443,35,São Paulo,SP,BRA,24.715648420132155
2100832,Apicum-Açu,17582.0,341.12,-1.45862,-45.0864,21,Maranhão,MA,BRA,51.541979362101316
4201257,Apiúna,10951.0,493.49,-27.0375,-49.3885,42,Santa Catarina,SC,BRA,22.190925854627245
2401008,Apodi,35904.0,1602.477,-5.65349,-37.7946,24,Rio Grande do Norte,RN,BRA,22.40531377361422
2901908,Aporá,17840.0,479.262,-11.6577,-38.0814,29,Bahia,BA,BRA,37.22389841047277
5201504,Aporé,4266.0,2899.237,-18.9607,-51.9232,52,Goiás,GO,BRA,1.4714216188604106
2901957,Apuarema,7274.0,150.83,-13.8542,-39.7501,29,Bahia,BA,BRA,48.22648014320758
4101408,Apucarana,137438.0,558.389,-23.55,-51.4635,41,Paraná,PR,BRA,246.1330721056468
1300144,Apuí,22739.0,54240.545,-7.19409,-59.896,13,Amazonas,AM,BRA,0.41922513868546124
2300903,Apuiarés,14742.0,543.98,-3.94506,-39.4359,23,Ceará,CE,BRA,27.100261039008785
2800209,Aquidabã,21796.0,359.543,-10.278,-37.0148,28,Sergipe,SE,BRA,60.621399943817565
4201273,Arabutã,4268.0,132.779,-27.1587,-52.1423,42,Santa Catarina,SC,BRA,32.14363717154068
2500809,Araçagi,16857.0,232.177,-6.84374,-35.3737,25,Paraíba,PB,BRA,72.60409084448503
3103207,Araçaí,2360.0,187.538,-19.1955,-44.2493,31,Minas Gerais,MG,BRA,12.584116285766084
3502754,Araçariguama,23343.0,145.204,-23.4366,-47.0608,35,São Paulo,SP,BRA,160.76003415883858
2902054,Araças,12237.0,474.577,-12.22,-38.2027,29,Bahia,BA,BRA,25.785067544360558
2301109,Aracati,75392.0,1227.197,-4.55826,-37.7679,23,Ceará,CE,BRA,61.43430924293329
2902005,Aracatu,12960.0,1489.803,-14.428,-41.4648,29,Bahia,BA,BRA,8.699136731500742
3502804,Araçatuba,199210.0,1167.126,-21.2076,-50.4401,35,São Paulo,SP,BRA,170.68422775261627
2902104,Araci,54903.0,1496.245,-11.3253,-38.9584,29,Bahia,BA,BRA,36.693856955244634
3103306,Aracitaba,2056.0,106.608,-21.3446,-43.3736,31,Minas Gerais,MG,BRA,19.285607083896142
2301208,Aracoiaba,26600.0,643.988,-4.36872,-38.8125,23,Ceará,CE,BRA,41.30511748666124
3200607,Aracruz,104942.0,1420.285,-19.82,-40.2764,32,Espirito Santo,ES,BRA,73.88798727016056
5201603,Araçu,3450.0,149.776,-16.3563,-49.6804,52,Goiás,GO,BRA,23.034398034398034
3103405,Araçuaí,36715.0,2236.279,-16.8523,-42.0637,31,Minas Gerais,MG,BRA,16.417897766781337
1701309,Aragominas,5705.0,1168.213,-7.16005,-48.5291,17,Tocantins,TO,BRA,4.8835272334754025
1701903,Araguacema,7223.0,2774.505,-8.80755,-49.5569,17,Tocantins,TO,BRA,2.6033472637461457
1702000,Araguaçu,8418.0,5155.223,-12.9289,-49.8231,17,Tocantins,TO,BRA,1.632907053681286
5101001,Araguaiana,3064.0,6380.7,-15.7291,-51.8341,51,Mato Grosso,MT,BRA,0.480198097387434
1702109,Araguaína,186245.0,4004.646,-7.19238,-48.2044,17,Tocantins,TO,BRA,46.50723185020598
5101209,Araguainha,909.0,675.231,-16.857,-53.0318,51,Mato Grosso,MT,BRA,1.3462059650697318
1702158,Araguanã,5856.0,834.834,-6.58225,-48.6395,17,Tocantins,TO,BRA,7.014568165647303
2100873,Araguanã,15675.0,805.194,-2.94644,-45.6589,21,Maranhão,MA,BRA,19.467358177035596
5202155,Araguapaz,7795.0,2188.1,-15.0909,-50.6315,52,Goiás,GO,BRA,3.5624514418902247
3103504,Araguari,118361.0,2729.777,-18.6456,-48.1934,31,Minas Gerais,MG,BRA,43.359219452724524
1702208,Araguatins,36573.0,2633.278,-5.64659,-48.1232,17,Tocantins,TO,BRA,13.888772852695388
2100907,Araioses,47095.0,1789.73,-2.89091,-41.905,21,Maranhão,MA,BRA,26.314025020533823
5001243,Aral Moreira,12511.0,1653.86,-22.9385,-55.6334,50,Mato Grosso do Sul,MS,BRA,7.564727365073223
2902203,Aramari,11519.0,368.947,-12.0884,-38.4969,29,Bahia,BA,BRA,31.221286526249028
4300851,Arambaré,3544.0,518.193,-30.9092,-51.5046,43,Rio Grande do Sul,RS,BRA,6.839150663941814
2100956,Arame,32825.0,2976.039,-4.88347,-46.0032,21,Maranhão,MA,BRA,11.029761370734724
3503109,Arandu,6373.0,285.908,-23.1386,-49.0487,35,São Paulo,SP,BRA,22.290387117534312
3103603,Arantina,2779.0,89.42,-21.9102,-44.2555,31,Minas Gerais,MG,BRA,31.078058599865802
3503158,Arapeí,2452.0,156.903,-22.6717,-44.4441,35,São Paulo,SP,BRA,15.62748959548256
2700300,Arapiraca,234309.0,345.655,-9.75487,-36.6615,27,Alagoas,AL,BRA,677.8695520099521
1702307,Arapoema,6590.0,1558.138,-7.65463,-49.0637,17,Tocantins,TO,BRA,4.229407151356298
3103702,Araponga,8467.0,303.793,-20.6686,-42.5178,31,Minas Gerais,MG,BRA,27.870951601913145
4101507,Arapongas,126545.0,382.215,-23.4153,-51.4259,41,Paraná,PR,BRA,331.08329081799513
4101606,Arapoti,28480.0,1358.176,-24.1548,-49.8285,41,Paraná,PR,BRA,20.969300002356103
4101655,Arapuã,2951.0,217.371,-24.3132,-51.7856,41,Paraná,PR,BRA,13.575867986069898
3103801,Arapuá,2836.0,173.894,-19.0268,-46.1484,31,Minas Gerais,MG,BRA,16.30878581204642
5101258,Araputanga,17078.0,1639.733,-15.4641,-58.3425,51,Mato Grosso,MT,BRA,10.415110264902884
2500908,Arara,13613.0,91.306,-6.82813,-35.7552,25,Paraíba,PB,BRA,149.09206404836485
3503307,Araras,136739.0,644.831,-22.3572,-47.3842,35,São Paulo,SP,BRA,212.05401105095754
2301257,Ararendá,10983.0,342.301,-4.74567,-40.831,23,Ceará,CE,BRA,32.08579583466014
2101004,Arari,30014.0,1100.275,-3.45214,-44.7665,21,Maranhão,MA,BRA,27.27863488673286
2301307,Araripe,21707.0,1097.339,-7.21319,-40.1359,23,Ceará,CE,BRA,19.781489585260346
4101705,Araruna,14029.0,493.191,-23.9315,-52.5021,41,Paraná,PR,BRA,28.445369035525793
2501005,Araruna,20610.0,246.717,-6.54848,-35.7498,25,Paraíba,PB,BRA,83.53700798891036
2902252,Arataca,10904.0,435.962,-15.2651,-39.419,29,Bahia,BA,BRA,25.011354200595466
4300901,Aratiba,6145.0,342.279,-27.3978,-52.2975,43,Rio Grande do Sul,RS,BRA,17.95319023369824
2301406,Aratuba,11759.0,119.758,-4.41229,-39.0471,23,Ceará,CE,BRA,98.1896825264283
2902302,Aratuípe,8848.0,174.012,-13.0716,-39.0038,29,Bahia,BA,BRA,50.84706801829759
2800407,Arauá,9840.0,198.967,-11.2614,-37.6201,28,Sergipe,SE,BRA,49.455437333829224
3103900,Araújos,9523.0,245.522,-19.9405,-45.1671,31,Minas Gerais,MG,BRA,38.78674823437411
3104106,Arceburgo,10990.0,162.875,-21.359,-46.9401,31,Minas Gerais,MG,BRA,67.47505755947813
3104205,Arcos,40658.0,509.873,-20.2863,-45.5373,31,Minas Gerais,MG,BRA,79.74142580603406
2601201,Arcoverde,75295.0,323.369,-8.41519,-37.0577,26,Pernambuco,PE,BRA,232.84544900717134
3104304,Areado,15288.0,283.124,-21.3572,-46.1421,31,Minas Gerais,MG,BRA,53.99754171317161
3503406,Arealva,8665.0,506.226,-22.031,-48.9135,35,São Paulo,SP,BRA,17.11686084871184
2501104,Areia,22493.0,269.13,-6.96396,-35.6977,25,Paraíba,PB,BRA,83.576710140081
2401107,Areia Branca,28156.0,342.749,-4.95254,-37.1252,24,Rio Grande do Norte,RN,BRA,82.14757738169914
2800506,Areia Branca,18825.0,148.134,-10.758,-37.3251,28,Sergipe,SE,BRA,127.08088622463447
2501153,Areia de Baraúnas,2105.0,114.078,-7.11702,-36.9404,25,Paraíba,PB,BRA,18.45228703168008
2501203,Areial,7054.0,35.81,-7.04789,-35.9313,25,Paraíba,PB,BRA,196.98408265847527
3503505,Areias,3906.0,305.227,-22.5786,-44.6992,35,São Paulo,SP,BRA,12.797033027877614
3503604,Areiópolis,11186.0,85.907,-22.6672,-48.6681,35,São Paulo,SP,BRA,130.21057655371507
5202353,Arenópolis,2462.0,1075.535,-16.3837,-51.5563,52,Goiás,GO,BRA,2.2890933349449343
2401206,Arês,14526.0,115.407,-6.18831,-35.1608,24,Rio Grande do Norte,RN,BRA,125.8675816891523
3104403,Argirita,2681.0,159.378,-21.6083,-42.8292,31,Minas Gerais,MG,BRA,16.821644141600473
3104452,Aricanduva,5305.0,243.329,-17.8666,-42.5533,31,Minas Gerais,MG,BRA,21.80175811350065
3104502,Arinos,17850.0,5279.419,-15.9187,-46.1043,31,Minas Gerais,MG,BRA,3.3810538621768798
5101407,Aripuanã,23067.0,24678.135,-10.1723,-59.4568,51,Mato Grosso,MT,BRA,0.9347140697625652
1100023,Ariquemes,111148.0,4426.571,-9.90571,-63.0325,11,Rondônia,RO,BRA,25.109277587550274
4101853,Ariranha do Ivaí,2026.0,239.562,-24.3857,-51.5839,41,Paraná,PR,BRA,8.457100875764937
4201505,Armazém,8843.0,173.958,-28.2448,-49.0215,42,Santa Catarina,SC,BRA,50.83410938272456
2301505,Arneiroz,7848.0,1068.437,-6.3165,-40.1653,23,Ceará,CE,BRA,7.345309082332417
2200905,Aroazes,5819.0,821.212,-6.11022,-41.7822,22,Piauí,PI,BRA,7.085868204556193
2501302,Aroeiras,19081.0,376.118,-7.54473,-35.7066,25,Paraíba,PB,BRA,50.73141939497711
2200954,Aroeiras do Itaim,2551.0,316.235,-7.24502,-41.5325,22,Piauí,PI,BRA,8.066785776400462
2201002,Arraial,4713.0,682.727,-6.65075,-42.5418,22,Piauí,PI,BRA,6.903198496617242
1702406,Arraias,10502.0,5803.085,-12.9287,-46.9359,17,Tocantins,TO,BRA,1.8097270675856032
4301057,Arroio do Sal,10483.0,119.163,-29.5439,-49.8895,43,Rio Grande do Sul,RS,BRA,87.97193759807995
4301206,Arroio do Tigre,13452.0,315.132,-29.3348,-53.0966,43,Rio Grande do Sul,RS,BRA,42.68687407181752
4301107,Arroio dos Ratos,14201.0,425.791,-30.0875,-51.7275,43,Rio Grande do Sul,RS,BRA,33.35204360824912
4301305,Arroio Grande,18185.0,2508.545,-32.2327,-53.0862,43,Rio Grande do Sul,RS,BRA,7.249222158661694
4201604,Arroio Trinta,3547.0,93.53,-26.9257,-51.3407,42,Santa Catarina,SC,BRA,37.923660857478886
5202502,Aruanã,10340.0,3054.773,-14.9166,-51.075,52,Goiás,GO,BRA,3.3848668951833734
4201653,Arvoredo,2228.0,90.503,-27.0748,-52.4543,42,Santa Catarina,SC,BRA,24.617968465133753
4301404,Arvorezinha,10422.0,270.241,-28.8737,-52.1781,43,Rio Grande do Sul,RS,BRA,38.56557665195141
4201703,Ascurra,8021.0,112.884,-26.9548,-49.3783,42,Santa Catarina,SC,BRA,71.05524254987421
3503950,Aspásia,1815.0,69.373,-20.16,-50.728,35,São Paulo,SP,BRA,26.16291640840096
4101903,Assaí,14792.0,440.347,-23.3697,-50.8459,41,Paraná,PR,BRA,33.59169018978215
2301604,Assaré,23537.0,1155.124,-6.8669,-39.8689,23,Ceará,CE,BRA,20.37616740713551
3504008,Assis,105768.0,460.609,-22.66,-50.4183,35,São Paulo,SP,BRA,229.62642935765476
4102000,Assis Chateaubriand,33306.0,980.727,-24.4168,-53.5213,41,Paraná,PR,BRA,33.96052112361544
2501351,Assunção,4067.0,132.139,-7.07231,-36.725,25,Paraíba,PB,BRA,30.77819568787413
2201051,Assunção do Piauí,7879.0,1690.703,-5.865,-41.0389,22,Piauí,PI,BRA,4.660191648089581
3104601,Astolfo Dutra,14358.0,158.891,-21.3184,-42.8572,31,Minas Gerais,MG,BRA,90.36383432667678
4102109,Astorga,26304.0,434.792,-23.2318,-51.6668,41,Paraná,PR,BRA,60.4978932455059
4102208,Atalaia,3871.0,137.663,-23.1517,-52.0551,41,Paraná,PR,BRA,28.11939301046759
2700409,Atalaia,47540.0,533.258,-9.5119,-36.0086,27,Alagoas,AL,BRA,89.15009245055863
1300201,Atalaia do Norte,20868.0,76435.093,-4.37055,-70.1967,13,Amazonas,AM,BRA,0.2730159561655796
4201802,Atalanta,3179.0,94.383,-27.4219,-49.7789,42,Santa Catarina,SC,BRA,33.68191305637668
3104700,Ataléia,12496.0,1836.925,-18.0438,-41.1149,31,Minas Gerais,MG,BRA,6.8026729452753925
3200706,Atilio Vivacqua,12270.0,232.868,-20.913,-41.1986,32,Espirito Santo,ES,BRA,52.69079478502843
1702554,Augustinópolis,18870.0,388.81,-5.46863,-47.8863,17,Tocantins,TO,BRA,48.53270234819063
1500909,Augusto Corrêa,46937.0,1099.619,-1.05109,-46.6147,15,Pará,PA,BRA,42.68478445716198
3104809,Augusto de Lima,4833.0,1254.832,-18.0997,-44.2655,31,Minas Gerais,MG,BRA,3.8515115967715197
4301503,Augusto Pestana,6545.0,348.231,-28.5172,-53.9883,43,Rio Grande do Sul,RS,BRA,18.794995276124183
2401305,Augusto Severo (Campo Grande),9686.0,896.954,-5.86206,-37.3135,24,Rio Grande do Norte,RN,BRA,10.798770059557125
4301552,Áurea,3517.0,156.727,-27.6936,-52.0505,43,Rio Grande do Sul,RS,BRA,22.440294269653602
3504206,Auriflama,15316.0,434.498,-20.6836,-50.5572,35,São Paulo,SP,BRA,35.24987456789214
5202601,Aurilândia,3000.0,565.514,-16.6773,-50.4641,52,Goiás,GO,BRA,5.304908454963096
2301703,Aurora,24567.0,885.87,-6.93349,-38.9742,23,Ceará,CE,BRA,27.732060008804904
4201901,Aurora,5687.0,207.045,-27.3098,-49.6295,42,Santa Catarina,SC,BRA,27.467458765002778
1500958,Aurora do Pará,32200.0,1811.84,-2.14898,-47.5677,15,Pará,PA,BRA,17.77198869657365
1702703,Aurora do Tocantins,3809.0,696.194,-12.7105,-46.4076,17,Tocantins,TO,BRA,5.47117613768576
1300300,Autazes,41005.0,7652.852,-3.58574,-59.1256,13,Amazonas,AM,BRA,5.358133150882835
3504305,Avaí,5467.0,540.689,-22.1514,-49.3356,35,São Paulo,SP,BRA,10.111172966344794
3504404,Avanhandava,14063.0,338.37,-21.4584,-49.9509,35,São Paulo,SP,BRA,41.561013092177205
3504503,Avaré,91792.0,1213.055,-23.1067,-48.9251,35,São Paulo,SP,BRA,75.67010564236575
1501006,Aveiro,16421.0,17074.053,-3.60841,-55.3199,15,Pará,PA,BRA,0.9617517293638482
2201101,Avelino Lopes,11361.0,1220.371,-10.1345,-43.9563,22,Piauí,PI,BRA,9.309464089199103
5202809,Avelinópolis,2401.0,170.228,-16.4672,-49.7579,52,Goiás,GO,BRA,14.104612637168973
1702901,Axixá do Tocantins,9817.0,153.539,-5.61275,-47.7701,17,Tocantins,TO,BRA,63.938152521509195
1703008,Babaçulândia,10668.0,1790.297,-7.20923,-47.7613,17,Tocantins,TO,BRA,5.95878784358126
2101202,Bacabal,105094.0,1656.736,-4.22447,-44.7832,21,Maranhão,MA,BRA,63.43436733432484
2101251,Bacabeira,17446.0,542.962,-2.96452,-44.3164,21,Maranhão,MA,BRA,32.131162033438805
2101301,Bacuri,18726.0,850.491,-1.6965,-45.1328,21,Maranhão,MA,BRA,22.017869677633275
2101350,Bacurituba,5696.0,413.651,-2.71,-44.7329,21,Maranhão,MA,BRA,13.770062202194604
1501105,Bagre,31967.0,4397.321,-1.90057,-50.1987,15,Pará,PA,BRA,7.269653500392626
2501401,Baía da Traição,9197.0,102.756,-6.69209,-34.9381,25,Paraíba,PB,BRA,89.50328934563431
2401404,Baía Formosa,9373.0,247.484,-6.37161,-35.0033,24,Rio Grande do Norte,RN,BRA,37.87315543631103
2902500,Baianópolis,13979.0,3320.723,-12.3016,-44.5388,29,Bahia,BA,BRA,4.209625433979287
1501204,Baião,49454.0,3759.834,-2.79021,-49.6694,15,Pará,PA,BRA,13.153240276033463
2902609,Baixa Grande,20431.0,967.514,-11.9519,-40.169,29,Bahia,BA,BRA,21.11700709240383
2201150,Baixa Grande do Ribeiro,11751.0,7808.915,-7.84903,-45.219,22,Piauí,PI,BRA,1.504818531127564
2301802,Baixio,6318.0,145.556,-6.71945,-38.7134,23,Ceará,CE,BRA,43.405974332902794
3200805,Baixo Guandu,31263.0,909.039,-19.5213,-41.0109,32,Espirito Santo,ES,BRA,34.39126374115962
3105004,Baldim,7780.0,556.266,-19.2832,-43.9613,31,Minas Gerais,MG,BRA,13.986114556704887
4202057,Balneário Barra do Sul,11271.0,108.914,-26.4597,-48.6123,42,Santa Catarina,SC,BRA,103.48531869181188
4220000,Balneário Rincão,13129.0,63.42,-28.8314,-49.2352,42,Santa Catarina,SC,BRA,207.01671397035634
2101400,Balsas,96951.0,13141.162,-7.53214,-46.0372,21,Maranhão,MA,BRA,7.377658079247482
3105103,Bambuí,23964.0,1455.819,-20.0166,-45.9754,31,Minas Gerais,MG,BRA,16.460837507959436
2301851,Banabuiú,18313.0,1080.986,-5.30454,-38.9132,23,Ceará,CE,BRA,16.94101496226593
3504909,Bananal,11039.0,616.429,-22.6819,-44.3281,35,São Paulo,SP,BRA,17.907982914496237
3105202,Bandeira,4738.0,483.789,-15.8783,-40.5622,31,Minas Gerais,MG,BRA,9.793525689918539
3105301,Bandeira do Sul,5808.0,47.266,-21.7308,-46.3833,31,Minas Gerais,MG,BRA,122.87902509203234
4202081,Bandeirante,2618.0,148.074,-26.7705,-53.6413,42,Santa Catarina,SC,BRA,17.68034901468185
5001508,Bandeirantes,7281.0,3357.926,-19.9275,-54.3585,50,Mato Grosso do Sul,MS,BRA,2.1683026963667453
4102406,Bandeirantes,31061.0,445.192,-23.1078,-50.3704,41,Paraná,PR,BRA,69.76989703319018
1703057,Bandeirantes do Tocantins,3631.0,1540.541,-7.75612,-48.5836,17,Tocantins,TO,BRA,2.3569642093264638
1501253,Bannach,3239.0,2956.649,-7.34779,-50.3959,15,Pará,PA,BRA,1.0954969629469038
2902658,Banzaê,13251.0,409.507,-10.5788,-38.6212,29,Bahia,BA,BRA,32.358421223568826
4301651,Barão,6232.0,124.113,-29.3725,-51.4949,43,Rio Grande do Sul,RS,BRA,50.21230652711642
3505005,Barão de Antonina,3525.0,153.142,-23.6284,-49.5634,35,São Paulo,SP,BRA,23.017852711862194
3105400,Barão de Cocais,33232.0,340.14,-19.9389,-43.4755,31,Minas Gerais,MG,BRA,97.70094666901865
4301701,Barão de Cotegipe,6616.0,260.505,-27.6208,-52.3798,43,Rio Grande do Sul,RS,BRA,25.3968253968254
5101605,Barão de Melgaço,8165.0,11374.872,-16.2067,-55.9623,51,Mato Grosso,MT,BRA,0.7178102751397994
3105509,Barão de Monte Alto,5311.0,198.313,-21.2444,-42.2372,31,Minas Gerais,MG,BRA,26.780896865056754
4301750,Barão do Triunfo,7550.0,436.101,-30.3891,-51.7384,43,Rio Grande do Sul,RS,BRA,17.312503296254768
2401453,Baraúna,29112.0,825.681,-5.06977,-37.6129,24,Rio Grande do Norte,RN,BRA,35.2581687116453
2501534,Baraúna,5033.0,50.03,-6.63484,-36.2601,25,Paraíba,PB,BRA,100.59964021587048
3505104,Barbosa,7532.0,205.212,-21.2657,-49.9518,35,São Paulo,SP,BRA,36.703506617546736
4102505,Barbosa Ferraz,11287.0,538.636,-24.0334,-52.004,41,Paraná,PR,BRA,20.954782079177775
1501303,Barcarena,129333.0,1310.338,-1.51187,-48.6195,15,Pará,PA,BRA,98.70201428944289
2401503,Barcelona,3989.0,152.626,-5.94284,-35.9247,24,Rio Grande do Norte,RN,BRA,26.13578289413337
1300409,Barcelos,27772.0,122461.086,-0.983373,-62.9311,13,Amazonas,AM,BRA,0.2267822449328924
3505203,Bariri,35844.0,444.405,-22.073,-48.7438,35,São Paulo,SP,BRA,80.65615823404328
2902708,Barra,54225.0,11428.112,-11.0859,-43.1459,29,Bahia,BA,BRA,4.744878244105413
4202099,Barra Bonita,1625.0,92.561,-26.654,-53.44,42,Santa Catarina,SC,BRA,17.555990103823422
2201176,Barra D'Alcântara,3953.0,263.943,-6.51645,-42.1146,22,Piauí,PI,BRA,14.97671845815195
2902807,Barra da Estiva,20198.0,1657.413,-13.6237,-41.3347,29,Bahia,BA,BRA,12.186461672498044
2601300,Barra de Guabiraba,14632.0,120.583,-8.42075,-35.6585,26,Pernambuco,PE,BRA,121.34380468225206
2501609,Barra de Santa Rosa,15607.0,781.187,-6.71816,-36.0671,25,Paraíba,PB,BRA,19.978571071971242
2501575,Barra de Santana,8338.0,375.177,-7.51809,-35.9913,25,Paraíba,PB,BRA,22.224176855191015
3200904,Barra de São Francisco,45301.0,944.521,-18.7548,-40.8965,32,Espirito Santo,ES,BRA,47.961876972560695
2501708,Barra de São Miguel,6095.0,609.697,-7.74603,-36.3209,25,Paraíba,PB,BRA,9.996768886840513
2700607,Barra de São Miguel,8434.0,74.247,-9.83842,-35.9057,27,Alagoas,AL,BRA,113.59381523832613
5101704,Barra do Bugres,35642.0,5976.864,-15.0702,-57.1878,51,Mato Grosso,MT,BRA,5.963327925815277
3505351,Barra do Chapéu,5794.0,405.681,-24.4722,-49.0238,35,São Paulo,SP,BRA,14.282157655892192
2902906,Barra do Choça,30831.0,765.936,-14.8654,-40.5791,29,Bahia,BA,BRA,40.25271040922479
2101608,Barra do Corda,88895.0,5187.673,-5.49682,-45.2485,21,Maranhão,MA,BRA,17.135814073092117
4102703,Barra do Jacaré,2781.0,115.855,-23.116,-50.1842,41,Paraná,PR,BRA,24.004143109921884
2903003,Barra do Mendes,13128.0,1436.298,-11.81,-42.059,29,Bahia,BA,BRA,9.140164506251487
1703073,Barra do Ouro,4673.0,1105.84,-7.69593,-47.6776,17,Tocantins,TO,BRA,4.225746943499964
3300308,Barra do Piraí,101139.0,584.61,-22.4715,-43.8269,33,Rio de Janeiro,RJ,BRA,173.00251449684404
4301909,Barra do Ribeiro,13618.0,729.316,-30.2939,-51.3014,43,Rio Grande do Sul,RS,BRA,18.672290200681186
4301925,Barra do Rio Azul,1621.0,146.995,-27.4069,-52.4084,43,Rio Grande do Sul,RS,BRA,11.027585972311982
2903102,Barra do Rocha,5515.0,214.411,-14.2,-39.5991,29,Bahia,BA,BRA,25.72162808811115
3505401,Barra do Turvo,7606.0,1007.684,-24.759,-48.5013,35,São Paulo,SP,BRA,7.548001159093525
4301958,Barra Funda,2563.0,60.437,-27.9205,-53.0391,43,Rio Grande do Sul,RS,BRA,42.407796548471964
3105707,Barra Longa,4905.0,383.628,-20.2869,-43.0402,31,Minas Gerais,MG,BRA,12.785823766774064
4301800,Barracão,5237.0,515.469,-27.6739,-51.4585,43,Rio Grande do Sul,RS,BRA,10.15967982555692
2201200,Barras,47298.0,1722.507,-4.24468,-42.2922,22,Piauí,PI,BRA,27.458814390884914
2301950,Barreira,22715.0,260.003,-4.28921,-38.6429,23,Ceará,CE,BRA,87.36437656488579
2903201,Barreiras,158432.0,8051.274,-12.1439,-44.9968,29,Bahia,BA,BRA,19.677879550491014
2201309,Barreiras do Piauí,3356.0,2168.713,-9.9296,-45.4702,22,Piauí,PI,BRA,1.5474615589983551
1300508,Barreirinha,32919.0,5751.765,-2.79886,-57.0679,13,Amazonas,AM,BRA,5.723286678089247
2101707,Barreirinhas,63891.0,3046.308,-2.75863,-42.8232,21,Maranhão,MA,BRA,20.973256807913053
2601409,Barreiros,42866.0,233.433,-8.81605,-35.1832,26,Pernambuco,PE,BRA,183.6329910509654
3505500,Barretos,123546.0,1566.161,-20.5531,-48.5698,35,São Paulo,SP,BRA,78.88461020291017
3505609,Barrinha,33537.0,146.025,-21.1864,-48.1636,35,São Paulo,SP,BRA,229.66615305598356
2302008,Barro,22834.0,711.346,-7.17188,-38.7741,23,Ceará,CE,BRA,32.09970956468442
2903235,Barro Alto,15171.0,414.51,-11.7605,-41.9054,29,Bahia,BA,BRA,36.59984077585583
2201408,Barro Duro,7022.0,159.436,-5.81673,-42.5147,22,Piauí,PI,BRA,44.042750696204116
2903300,Barro Preto,5312.0,201.585,-14.7948,-39.476,29,Bahia,BA,BRA,26.35116700151301
2903276,Barrocas,16225.0,207.297,-11.5272,-39.0776,29,Bahia,BA,BRA,78.26934301991828
1703107,Barrolândia,5669.0,697.759,-9.83404,-48.7252,17,Tocantins,TO,BRA,8.124581696545656
2302057,Barroquinha,15069.0,385.583,-3.02051,-41.1358,23,Ceará,CE,BRA,39.081079819390375
4302006,Barros Cassal,11167.0,647.994,-29.0947,-52.5836,43,Rio Grande do Sul,RS,BRA,17.23318425787893
3105905,Barroso,20981.0,82.07,-21.1907,-43.972,31,Minas Gerais,MG,BRA,255.6476178871695
3505807,Bastos,20952.0,170.912,-21.921,-50.7357,35,São Paulo,SP,BRA,122.5894027335705
5001904,Bataguassu,23620.0,2392.476,-21.7159,-52.4221,50,Mato Grosso do Sul,MS,BRA,9.872617321971045
2201507,Batalha,26951.0,1589.01,-4.0223,-42.0787,22,Piauí,PI,BRA,16.960875010226495
2700706,Batalha,18440.0,315.87,-9.6742,-37.133,27,Alagoas,AL,BRA,58.37844682939184
3505906,Batatais,63438.0,849.526,-20.8929,-47.5921,35,São Paulo,SP,BRA,74.67458323818224
5002001,Batayporã,11368.0,1826.578,-22.2944,-53.2705,50,Mato Grosso do Sul,MS,BRA,6.223659761586967
2302107,Baturité,36127.0,314.075,-4.32598,-38.8812,23,Ceará,CE,BRA,115.02666560534904
3506102,Bebedouro,77612.0,683.192,-20.9491,-48.4791,35,São Paulo,SP,BRA,113.60203281068866
2302206,Beberibe,54315.0,1596.751,-4.17741,-38.1271,23,Ceará,CE,BRA,34.015948635698365
2302305,Bela Cruz,32851.0,842.106,-3.04996,-40.1671,23,Ceará,CE,BRA,39.01052836578768
4102752,Bela Vista da Caroba,3404.0,148.107,-25.8842,-53.6725,41,Paraná,PR,BRA,22.983383634804568
5203302,Bela Vista de Goiás,31004.0,1274.034,-16.9693,-48.9513,52,Goiás,GO,BRA,24.33530031380638
2101772,Bela Vista do Maranhão,11347.0,147.954,-3.72618,-45.3075,21,Maranhão,MA,BRA,76.69275585655001
4102802,Bela Vista do Paraíso,15400.0,242.689,-22.9937,-51.1927,41,Paraná,PR,BRA,63.45569844533539
2201556,Bela Vista do Piauí,4044.0,499.092,-7.98809,-41.8675,22,Piauí,PI,BRA,8.102714529585729
4202131,Bela Vista do Toldo,6386.0,535.682,-26.2746,-50.4664,42,Santa Catarina,SC,BRA,11.921251787441056
2101731,Belágua,7586.0,569.606,-3.15485,-43.5122,21,Maranhão,MA,BRA,13.31797768984175
2501906,Belém,17733.0,99.609,-6.74261,-35.5166,25,Paraíba,PB,BRA,178.02608198054395
2700805,Belém,4226.0,66.628,-9.57047,-36.4904,27,Alagoas,AL,BRA,63.42678753677133
2601508,Belém de Maria,12169.0,75.142,-8.62504,-35.8335,26,Pernambuco,PE,BRA,161.94671422107479
2502003,Belém do Brejo do Cruz,7356.0,601.549,-6.18515,-37.5348,25,Paraíba,PB,BRA,12.22843026918838
2201572,Belém do Piauí,3607.0,243.234,-7.36652,-40.9688,22,Piauí,PI,BRA,14.829341292746902
2601607,Belém do São Francisco,20730.0,1830.797,-8.75046,-38.9623,26,Pernambuco,PE,BRA,11.322937496620325
3106101,Belmiro Braga,3422.0,393.086,-21.944,-43.4084,31,Minas Gerais,MG,BRA,8.705474120167088
4202156,Belmonte,2712.0,93.852,-26.843,-53.5758,42,Santa Catarina,SC,BRA,28.89656054213016
2903409,Belmonte,23540.0,1939.447,-15.8608,-38.8758,29,Bahia,BA,BRA,12.137480426121467
2903508,Belo Campo,17013.0,772.756,-15.0334,-41.2652,29,Bahia,BA,BRA,22.01600505204748
2601706,Belo Jardim,76930.0,647.696,-8.3313,-36.4258,26,Pernambuco,PE,BRA,118.77485734048071
2700904,Belo Monte,6717.0,334.136,-9.82272,-37.277,27,Alagoas,AL,BRA,20.102592956161562
3106408,Belo Vale,7723.0,365.923,-20.4077,-44.0275,31,Minas Gerais,MG,BRA,21.105533131287185
1501451,Belterra,17944.0,4398.418,-2.63609,-54.9374,15,Pará,PA,BRA,4.079648637305504
2201606,Beneditinos,10479.0,937.098,-5.45676,-42.3638,22,Piauí,PI,BRA,11.18239501098071
4202206,Benedito Novo,11896.0,388.291,-26.781,-49.3593,42,Santa Catarina,SC,BRA,30.636816202281278
1300607,Benjamin Constant,44873.0,8695.391,-4.37768,-70.0342,13,Amazonas,AM,BRA,5.160549997119164
4302055,Benjamin Constant do Sul,1924.0,132.351,-27.5086,-52.5995,43,Rio Grande do Sul,RS,BRA,14.537102099719684
2401602,Bento Fernandes,5552.0,301.069,-5.69906,-35.813,24,Rio Grande do Norte,RN,BRA,18.440955395606988
2101905,Bequimão,21317.0,790.222,-2.44162,-44.7842,21,Maranhão,MA,BRA,26.97596371652523
3106507,Berilo,11813.0,587.106,-16.9567,-42.4606,31,Minas Gerais,MG,BRA,20.12072777317895
3106655,Berizal,4792.0,488.756,-15.61,-41.7432,31,Minas Gerais,MG,BRA,9.804483218620335
2502052,Bernardino Batista,3571.0,57.453,-6.44572,-38.5521,25,Paraíba,PB,BRA,62.15515290759403
3506300,Bernardino de Campos,11168.0,244.158,-23.0164,-49.4679,35,São Paulo,SP,BRA,45.740872713570724
2101939,Bernardo do Mearim,6102.0,247.186,-4.62666,-44.7608,21,Maranhão,MA,BRA,24.685864086153746
1703206,Bernardo Sayão,4439.0,924.045,-7.87481,-48.8893,17,Tocantins,TO,BRA,4.80387859898598
3506359,Bertioga,66154.0,491.546,-23.8486,-46.1396,35,São Paulo,SP,BRA,134.5835384684241
2201705,Bertolínia,5512.0,1216.116,-7.63338,-43.9498,22,Piauí,PI,BRA,4.532462363787665
3106606,Bertópolis,4609.0,427.803,-17.059,-40.58,31,Minas Gerais,MG,BRA,10.7736504886595
1300631,Beruri,20503.0,17472.779,-3.89874,-61.3616,13,Amazonas,AM,BRA,1.1734252462072576
2601805,Betânia,12811.0,1244.074,-8.26787,-38.0345,26,Pernambuco,PE,BRA,10.297618951927296
2201739,Betânia do Piauí,6214.0,579.576,-8.14376,-40.7989,22,Piauí,PI,BRA,10.721630985410023
2601904,Bezerros,60960.0,492.632,-8.2328,-35.796,26,Pernambuco,PE,BRA,123.74348397992821
3106804,Bias Fortes,3282.0,283.535,-21.602,-43.7574,31,Minas Gerais,MG,BRA,11.57529052850618
3506409,Bilac,8197.0,158.025,-21.404,-50.4746,35,São Paulo,SP,BRA,51.87153931339978
3107000,Biquinhas,2482.0,458.948,-18.7754,-45.4974,31,Minas Gerais,MG,BRA,5.4080200807063115
2903607,Biritinga,15989.0,553.762,-11.6072,-38.8051,29,Bahia,BA,BRA,28.873414932768956
4102901,Bituruna,16411.0,1228.285,-26.1607,-51.5518,41,Paraná,PR,BRA,13.360905653003984
4103008,Boa Esperança,3991.0,302.739,-24.2467,-52.7876,41,Paraná,PR,BRA,13.182972791744705
3107109,Boa Esperança,40308.0,860.669,-21.0927,-45.5612,31,Minas Gerais,MG,BRA,46.83333546345924
3201001,Boa Esperança,15146.0,428.716,-18.5395,-40.3025,32,Espirito Santo,ES,BRA,35.3287491019696
4103024,Boa Esperança do Iguaçu,2437.0,151.797,-25.6324,-53.2108,41,Paraná,PR,BRA,16.05433572468494
3506706,Boa Esperança do Sul,15111.0,690.748,-21.9918,-48.3906,35,São Paulo,SP,BRA,21.87628483904405
2201770,Boa Hora,6848.0,336.954,-4.41404,-42.1357,22,Piauí,PI,BRA,20.32324887076574
2903706,Boa Nova,12039.0,849.538,-14.3598,-40.2064,29,Bahia,BA,BRA,14.171231893099543
2502102,Boa Ventura,5248.0,168.664,-7.40982,-38.2113,25,Paraíba,PB,BRA,31.11511644452877
4103040,Boa Ventura de São Roque,6343.0,620.453,-24.8688,-51.6276,41,Paraná,PR,BRA,10.223175647470478
2302404,Boa Viagem,54680.0,2835.037,-5.11258,-39.7337,23,Ceará,CE,BRA,19.287226233731694
1400100,Boa Vista,436591.0,5687.037,2.82384,-60.6753,14,Roraima,RR,BRA,76.76950229091176
2502151,Boa Vista,7218.0,468.933,-7.26365,-36.2357,25,Paraíba,PB,BRA,15.392390810627532
4103057,Boa Vista da Aparecida,7524.0,266.173,-25.4308,-53.4117,41,Paraná,PR,BRA,28.26732989446713
4302154,Boa Vista das Missões,2087.0,196.064,-27.6671,-53.3102,43,Rio Grande do Sul,RS,BRA,10.644483433980742
4302204,Boa Vista do Buricá,6712.0,109.541,-27.6693,-54.1082,43,Rio Grande do Sul,RS,BRA,61.27386092878466
4302220,Boa Vista do Cadeado,2466.0,701.221,-28.5791,-53.8108,43,Rio Grande do Sul,RS,BRA,3.5167229732138656
2101970,Boa Vista do Gurupi,8494.0,400.35,-1.77614,-46.3002,21,Maranhão,MA,BRA,21.21643561883352
4302238,Boa Vista do Incra,2628.0,504.114,-28.8185,-53.391,43,Rio Grande do Sul,RS,BRA,5.21310655923065
1300680,Boa Vista do Ramos,20040.0,2589.407,-2.97409,-57.5873,13,Amazonas,AM,BRA,7.739223690984074
4302253,Boa Vista do Sul,2773.0,92.956,-29.3544,-51.6687,43,Rio Grande do Sul,RS,BRA,29.83131804294505
2903805,Boa Vista do Tupim,18491.0,2972.109,-12.6498,-40.6064,29,Bahia,BA,BRA,6.221508026791749
2701001,Boca da Mata,27429.0,193.002,-9.64308,-36.2125,27,Alagoas,AL,BRA,142.11769826219415
1300706,Boca do Acre,34958.0,21938.583,-8.74232,-67.3919,13,Amazonas,AM,BRA,1.5934484009290848
2201804,Bocaina,4509.0,261.651,-6.94124,-41.3168,22,Piauí,PI,BRA,17.232878911221434
3506805,Bocaina,12571.0,363.926,-22.1365,-48.523,35,São Paulo,SP,BRA,34.54273671021032
3107208,Bocaina de Minas,5088.0,503.77,-22.1697,-44.3972,31,Minas Gerais,MG,BRA,10.099847152470375
4202438,Bocaina do Sul,3501.0,510.673,-27.7455,-49.9423,42,Santa Catarina,SC,BRA,6.855659100833606
3107307,Bocaiúva,50521.0,3206.757,-17.1135,-43.8104,31,Minas Gerais,MG,BRA,15.754545791901288
2401651,Bodó,2171.0,253.519,-5.98027,-36.4167,24,Rio Grande do Norte,RN,BRA,8.56346072680943
2602001,Bodocó,38605.0,1621.786,-7.77759,-39.9338,26,Pernambuco,PE,BRA,23.804003734154815
5002159,Bodoquena,7802.0,2591.933,-20.537,-56.7127,50,Mato Grosso do Sul,MS,BRA,3.0101086717905132
3506904,Bofete,12107.0,653.541,-23.1055,-48.2582,35,São Paulo,SP,BRA,18.52523407100702
2602100,Bom Conselho,48975.0,792.185,-9.16919,-36.6857,26,Pernambuco,PE,BRA,61.82268030826133
3107406,Bom Despacho,51436.0,1213.546,-19.7386,-45.2622,31,Minas Gerais,MG,BRA,42.38487869433874
3300506,Bom Jardim,27779.0,382.43,-22.1545,-42.4251,33,Rio de Janeiro,RJ,BRA,72.63812985382945
2602209,Bom Jardim,40038.0,224.12,-7.79695,-35.5784,26,Pernambuco,PE,BRA,178.64536855256114
2102002,Bom Jardim,42010.0,6588.38,-3.54129,-45.606,21,Maranhão,MA,BRA,6.376377804558936
4202503,Bom Jardim da Serra,4801.0,938.516,-28.3377,-49.6373,42,Santa Catarina,SC,BRA,5.115522804086452
5203401,Bom Jardim de Goiás,8912.0,1901.137,-16.2063,-52.1728,52,Goiás,GO,BRA,4.687721084803463
3107505,Bom Jardim de Minas,6444.0,412.021,-21.9479,-44.1885,31,Minas Gerais,MG,BRA,15.639979515607214
4202537,Bom Jesus,3104.0,63.883,-26.7326,-52.3919,42,Santa Catarina,SC,BRA,48.588826448350886
4302303,Bom Jesus,11270.0,2622.837,-28.6697,-50.4295,43,Rio Grande do Sul,RS,BRA,4.2968739574742925
2201903,Bom Jesus,25584.0,5471.024,-9.07124,-44.359,22,Piauí,PI,BRA,4.676272668516899
2401701,Bom Jesus,10323.0,122.035,-5.98648,-35.5792,24,Rio Grande do Norte,RN,BRA,84.59048633588725
2502201,Bom Jesus,2588.0,47.367,-6.81601,-38.6453,25,Paraíba,PB,BRA,54.6371946713957
2903904,Bom Jesus da Lapa,70151.0,4115.51,-13.2506,-43.4108,29,Bahia,BA,BRA,17.045518052440645
3107604,Bom Jesus da Penha,4270.0,208.349,-21.0148,-46.5174,31,Minas Gerais,MG,BRA,20.494458816696984
2903953,Bom Jesus da Serra,9768.0,467.813,-14.3663,-40.5126,29,Bahia,BA,BRA,20.880138003860516
2102036,Bom Jesus das Selvas,35095.0,2676.98,-4.47638,-46.8641,21,Maranhão,MA,BRA,13.109922375213861
5203500,Bom Jesus de Goiás,26069.0,1405.605,-18.2173,-49.74,52,Goiás,GO,BRA,18.546462199551083
3107703,Bom Jesus do Amparo,6182.0,195.611,-19.7054,-43.4782,31,Minas Gerais,MG,BRA,31.603539678238956
5101852,Bom Jesus do Araguaia,6830.0,4266.636,-12.1706,-51.5032,51,Mato Grosso,MT,BRA,1.6007927556979313
3107802,Bom Jesus do Galho,14792.0,592.289,-19.836,-42.3165,31,Minas Gerais,MG,BRA,24.97429464332446
4202578,Bom Jesus do Oeste,2136.0,67.777,-26.6927,-53.0967,42,Santa Catarina,SC,BRA,31.515115747229885
4103156,Bom Jesus do Sul,3472.0,173.817,-26.1958,-53.5955,41,Paraná,PR,BRA,19.975031210986266
1501576,Bom Jesus do Tocantins,17254.0,2816.604,-5.0424,-48.6047,15,Pará,PA,BRA,6.125816763733916
2102077,Bom Lugar,16578.0,445.171,-4.37311,-45.0326,21,Maranhão,MA,BRA,37.23962252707387
4302352,Bom Princípio,14446.0,88.774,-29.4856,-51.3548,43,Rio Grande do Sul,RS,BRA,162.7278257147363
2201919,Bom Princípio do Piauí,5670.0,523.142,-3.19631,-41.6403,22,Piauí,PI,BRA,10.838357463174434
4302378,Bom Progresso,1858.0,89.206,-27.5399,-53.8716,43,Rio Grande do Sul,RS,BRA,20.828195412864606
3107901,Bom Repouso,10527.0,229.845,-22.4675,-46.144,31,Minas Gerais,MG,BRA,45.80043072505384
4202602,Bom Retiro,10153.0,1057.034,-27.799,-49.487,42,Santa Catarina,SC,BRA,9.60517826295086
3108008,Bom Sucesso,17612.0,705.046,-21.0329,-44.7537,31,Minas Gerais,MG,BRA,24.979930387520813
4103206,Bom Sucesso,7103.0,322.755,-23.7063,-51.7671,41,Paraná,PR,BRA,22.007404997598798
2502300,Bom Sucesso,4937.0,186.059,-6.44176,-37.9234,25,Paraíba,PB,BRA,26.534593865386785
3507159,Bom Sucesso de Itararé,4013.0,133.578,-24.3155,-49.1451,35,São Paulo,SP,BRA,30.042372246926888
4103222,Bom Sucesso do Sul,3244.0,195.931,-26.0731,-52.8353,41,Paraná,PR,BRA,16.556849094834405
3108107,Bonfim,6852.0,301.865,-20.3302,-44.2366,31,Minas Gerais,MG,BRA,22.69888857601908
2201929,Bonfim do Piauí,5700.0,289.149,-9.1605,-42.8865,22,Piauí,PI,BRA,19.71301993090068
3108206,Bonfinópolis de Minas,5397.0,1850.487,-16.568,-45.9839,31,Minas Gerais,MG,BRA,2.9165295406020144
2904001,Boninal,14518.0,896.857,-12.7069,-41.8286,29,Bahia,BA,BRA,16.187641954068486
2602308,Bonito,38101.0,390.107,-8.47163,-35.7292,26,Pernambuco,PE,BRA,97.66807568180012
2904050,Bonito,16999.0,791.276,-11.9668,-41.2647,29,Bahia,BA,BRA,21.483022358822964
1501600,Bonito,16769.0,586.976,-1.36745,-47.3066,15,Pará,PA,BRA,28.568459357793163
5002209,Bonito,22401.0,5373.016,-21.1261,-56.4836,50,Mato Grosso do Sul,MS,BRA,4.169166814318067
3108255,Bonito de Minas,11502.0,3936.455,-15.3231,-44.7543,31,Minas Gerais,MG,BRA,2.9219183249903784
2502409,Bonito de Santa Fé,12126.0,226.798,-7.31341,-38.5133,25,Paraíba,PB,BRA,53.46607994779495
5203575,Bonópolis,4579.0,1635.319,-13.6329,-49.8106,52,Goiás,GO,BRA,2.800065308358797
2502508,Boqueirão,17934.0,373.077,-7.487,-36.1309,25,Paraíba,PB,BRA,48.07050555247308
4302451,Boqueirão do Leão,7691.0,265.952,-29.3046,-52.4284,43,Rio Grande do Sul,RS,BRA,28.918752256046204
2201945,Boqueirão do Piauí,6443.0,269.786,-4.48181,-42.1212,22,Piauí,PI,BRA,23.881891573321077
2800670,Boquim,26980.0,205.443,-11.1397,-37.6195,28,Sergipe,SE,BRA,131.3259638926612
2904100,Boquira,21486.0,1426.233,-12.8205,-42.7324,29,Bahia,BA,BRA,15.064859668791845
3507308,Boracéia,4913.0,122.11,-22.1926,-48.7808,35,São Paulo,SP,BRA,40.23421505200229
1300805,Borba,42328.0,44236.184,-4.39154,-59.5874,13,Amazonas,AM,BRA,0.9568637294753995
2502706,Borborema,5311.0,26.107,-6.80199,-35.6187,25,Paraíba,PB,BRA,203.43202972382886
3507407,Borborema,16278.0,552.256,-21.6214,-49.0741,35,São Paulo,SP,BRA,29.475460655927687
3108305,Borda da Mata,19809.0,301.108,-22.2707,-46.1653,31,Minas Gerais,MG,BRA,65.78702658182446
3507456,Borebi,2713.0,347.989,-22.5728,-48.9707,35,São Paulo,SP,BRA,7.7962234438444895
4103305,Borrazópolis,6290.0,334.378,-23.9366,-51.5875,41,Paraná,PR,BRA,18.81104618126791
4302501,Bossoroca,6135.0,1610.056,-28.7291,-54.9035,43,Rio Grande do Sul,RS,BRA,3.810426469638323
3108404,Botelhos,14927.0,334.089,-21.6412,-46.391,31,Minas Gerais,MG,BRA,44.679711094947756
3507506,Botucatu,149718.0,1482.642,-22.8837,-48.4437,35,São Paulo,SP,BRA,100.98054688859482
3108503,Botumirim,6259.0,1568.884,-16.8657,-43.0086,31,Minas Gerais,MG,BRA,3.9894600238131055
2904209,Botuporã,10050.0,627.612,-13.3772,-42.5163,29,Bahia,BA,BRA,16.013078143821343
4302584,Bozano,2099.0,200.497,-28.3659,-53.772,43,Rio Grande do Sul,RS,BRA,10.468984573335261
4202800,Braço do Norte,34294.0,212.045,-28.2681,-49.1701,42,Santa Catarina,SC,BRA,161.7298215001533
4202859,Braço do Trombudo,3794.0,89.411,-27.3586,-49.8821,42,Santa Catarina,SC,BRA,42.433257652861506
4302600,Braga,3271.0,132.044,-27.6173,-53.7405,43,Rio Grande do Sul,RS,BRA,24.772045681742448
1501709,Bragança,130122.0,2124.734,-1.06126,-46.7826,15,Pará,PA,BRA,61.24154835381747
3507605,Bragança Paulista,172346.0,512.584,-22.9527,-46.5419,35,São Paulo,SP,BRA,336.22976916954104
4103354,Braganey,5338.0,343.321,-24.8173,-53.1218,41,Paraná,PR,BRA,15.54813134064039
2701100,Branquinha,10426.0,168.048,-9.23342,-36.0162,27,Alagoas,AL,BRA,62.04179758164334
3108701,Brás Pires,4255.0,223.351,-20.8419,-43.2406,31,Minas Gerais,MG,BRA,19.05073180778237
1501725,Brasil Novo,14883.0,6362.575,-3.29792,-52.534,15,Pará,PA,BRA,2.339147279206925
5002308,Brasilândia,11835.0,5803.542,-21.2544,-52.0365,50,Mato Grosso do Sul,MS,BRA,2.0392718791386364
3108552,Brasilândia de Minas,16950.0,2509.694,-16.9999,-46.0081,31,Minas Gerais,MG,BRA,6.753811420834572
4103370,Brasilândia do Sul,2521.0,291.036,-24.1978,-53.5275,41,Paraná,PR,BRA,8.662158633296224
1703602,Brasilândia do Tocantins,2221.0,645.908,-8.38918,-48.4822,17,Tocantins,TO,BRA,3.4385701988518487
2201960,Brasileira,8364.0,880.836,-4.1337,-41.7859,22,Piauí,PI,BRA,9.495524706074683
3108602,Brasília de Minas,32460.0,1399.484,-16.2104,-44.4299,31,Minas Gerais,MG,BRA,23.194263028373317
5101902,Brasnorte,20571.0,15968.355,-12.1474,-57.9833,51,Mato Grosso,MT,BRA,1.2882353880534345
3108800,Braúnas,4737.0,378.318,-19.0562,-42.7099,31,Minas Gerais,MG,BRA,12.52121231345059
3108909,Brazópolis,14364.0,367.688,-22.4743,-45.6166,31,Minas Gerais,MG,BRA,39.06572964034725
2602407,Brejão,8981.0,159.786,-9.02915,-36.566,26,Pernambuco,PE,BRA,56.20642609490193
3201159,Brejetuba,12450.0,354.404,-20.1395,-41.2954,32,Espirito Santo,ES,BRA,35.129400345368566
2401800,Brejinho,12873.0,61.559,-6.18566,-35.3591,24,Rio Grande do Norte,RN,BRA,209.11645738234864
2602506,Brejinho,7489.0,106.275,-7.34694,-37.2865,26,Pernambuco,PE,BRA,70.46812514702422
1703701,Brejinho de Nazaré,5540.0,1722.59,-11.0058,-48.5683,17,Tocantins,TO,BRA,3.2160874032706563
2102101,Brejo,36900.0,1073.258,-3.67796,-42.7527,21,Maranhão,MA,BRA,34.381295084686066
2602605,Brejo da Madre de Deus,51696.0,762.346,-8.14933,-36.3741,26,Pernambuco,PE,BRA,67.81172853271349
2102150,Brejo de Areia,8841.0,986.036,-4.334,-45.581,21,Maranhão,MA,BRA,8.966204073684937
2502805,Brejo do Cruz,14287.0,401.315,-6.34185,-37.4943,25,Paraíba,PB,BRA,35.60046347632159
2201988,Brejo do Piauí,3824.0,2267.327,-8.20314,-42.8229,22,Piauí,PI,BRA,1.6865674867365843
2502904,Brejo dos Santos,6479.0,93.857,-6.37065,-37.8253,25,Paraíba,PB,BRA,69.03054646962933
2800704,Brejo Grande,8396.0,141.464,-10.4297,-36.4611,28,Sergipe,SE,BRA,59.35078889328734
1501758,Brejo Grande do Araguaia,7357.0,1288.477,-5.69822,-48.4103,15,Pará,PA,BRA,5.709841929658038
2302503,Brejo Santo,50195.0,654.658,-7.48469,-38.9799,23,Ceará,CE,BRA,76.67362195222543
2904407,Brejolândia,10675.0,2247.208,-12.4815,-43.9679,29,Bahia,BA,BRA,4.750339087436499
1501782,Breu Branco,68597.0,3941.904,-3.77191,-49.5735,15,Pará,PA,BRA,17.40199659859804
1501808,Breves,104280.0,9566.572,-1.68036,-50.4791,15,Pará,PA,BRA,10.900456297198202
5203807,Britânia,5815.0,1458.459,-15.2428,-51.1602,52,Goiás,GO,BRA,3.9870849986184047
4302659,Brochier,5132.0,105.353,-29.5501,-51.5945,43,Rio Grande do Sul,RS,BRA,48.712423946161955
3507902,Brotas,24862.0,1101.373,-22.2795,-48.1251,35,São Paulo,SP,BRA,22.57364217208884
2904506,Brotas de Macaúbas,10705.0,2520.817,-11.9915,-42.6326,29,Bahia,BA,BRA,4.2466390856615135
2904605,Brumado,67468.0,2207.612,-14.2021,-41.6696,29,Bahia,BA,BRA,30.561529834046922
4202875,Brunópolis,2318.0,336.439,-27.3058,-50.8684,42,Santa Catarina,SC,BRA,6.889807662013024
3109105,Bueno Brandão,10982.0,356.15,-22.4383,-46.3491,31,Minas Gerais,MG,BRA,30.83532219570406
3109204,Buenópolis,10342.0,1599.881,-17.8744,-44.1775,31,Minas Gerais,MG,BRA,6.464230777164051
2602704,Buenos Aires,13224.0,93.187,-7.72449,-35.3182,26,Pernambuco,PE,BRA,141.90820608024725
2904704,Buerarema,18269.0,219.487,-14.9595,-39.3028,29,Bahia,BA,BRA,83.23499797254507
2602803,Buíque,59448.0,1320.871,-8.61954,-37.1606,26,Pernambuco,PE,BRA,45.006666055958526
1200138,Bujari,10572.0,3034.869,-9.81528,-67.955,12,Acre,AC,BRA,3.483511149904658
1501907,Bujaru,29717.0,994.691,-1.51762,-48.0381,15,Pará,PA,BRA,29.875609611427066
3508009,Buri,20050.0,1196.463,-23.7977,-48.5958,35,São Paulo,SP,BRA,16.757726732878492
3508108,Buritama,17414.0,326.921,-21.0661,-50.1475,35,São Paulo,SP,BRA,53.26669134133323
2102200,Buriti,28916.0,1475.779,-3.94169,-42.9179,21,Maranhão,MA,BRA,19.59371965585633
5203906,Buriti Alegre,9515.0,901.932,-18.1378,-49.0404,52,Goiás,GO,BRA,10.549575799505948
2102309,Buriti Bravo,23993.0,1582.552,-5.83239,-43.8353,21,Maranhão,MA,BRA,15.160955216637433
5203939,Buriti de Goiás,2464.0,202.576,-16.1792,-50.4302,52,Goiás,GO,BRA,12.16333622936577
1703800,Buriti do Tocantins,11644.0,252.73,-5.31448,-48.2271,17,Tocantins,TO,BRA,46.072884105567205
2202000,Buriti dos Lopes,19832.0,690.54,-3.18259,-41.8695,22,Piauí,PI,BRA,28.719552813739973
2202026,Buriti dos Montes,8282.0,2437.326,-5.30584,-41.0933,22,Piauí,PI,BRA,3.3979861536782523
2102325,Buriticupu,73595.0,2544.857,-4.32375,-46.4409,21,Maranhão,MA,BRA,28.919110189688457
5203962,Buritinópolis,3272.0,246.075,-14.4772,-46.4076,52,Goiás,GO,BRA,13.296759118155034
2904753,Buritirama,21374.0,4046.736,-10.7171,-43.6302,29,Bahia,BA,BRA,5.281787593754572
2102358,Buritirana,15503.0,820.968,-5.59823,-47.0131,21,Maranhão,MA,BRA,18.883805458921664
1100452,Buritis,41043.0,3265.809,-10.1943,-63.8324,11,Rondônia,RO,BRA,12.567483279028258
3109303,Buritis,25179.0,5225.186,-15.6218,-46.4221,31,Minas Gerais,MG,BRA,4.81877582922407
3508207,Buritizal,4547.0,266.42,-20.1911,-47.7096,35,São Paulo,SP,BRA,17.06703700923354
